ride_id,rideable_type,started_at,ended_at,start_station_name,start_station_id,end_station_name,end_station_id,start_lat,start_lng,end_lat,end_lng,member_casual
7793CB69A3C1843F,electric_bike,2023-02-24 16:32:31,2023-02-24 16:44:26,Western Ave & Walton St,KA1504000103,,,41.89841866666666,-87.68645466666666,41.89,-87.68,casual
C8688022D55E0F7A,electric_bike,2023-02-07 19:09:38,2023-02-07 19:12:45,,,,,41.93,-87.8,41.92,-87.8,casual
6C0697BC56213178,classic_bike,2023-02-13 17:13:20,2023-02-13 17:19:05,Field Blvd & South Water St,15534,Dusable Harbor,KA1503000064,41.88634906269,-87.6175165471,41.886976,-87.612813,member
B05BD0E2B8ECC846,classic_bike,2023-02-26 15:52:35,2023-02-26 16:10:50,Ashland Ave & Division St,13061,Sheffield Ave & Willow St,TA1306000032,41.90345,-87.667747,41.913688,-87.652855,casual
3A91747153BAE2D4,electric_bike,2023-02-19 11:56:03,2023-02-19 12:05:53,Clark St & Berwyn Ave,KA1504000146,Southport Ave & Clark St,TA1308000047,41.978025556,-87.668069601,41.957081,-87.664199,casual
6B5D383A538E4B21,classic_bike,2023-02-26 15:13:27,2023-02-26 15:42:31,Lincoln Park Conservatory,LP-,Lakefront Trail & Bryn Mawr Ave,15576,41.92393131136619,-87.63582453131676,41.98404411519213,-87.65228122472763,member
F929AC0AA95ACE95,electric_bike,2023-02-01 21:19:17,2023-02-01 21:23:56,Canal St & Taylor St,15550,Franklin St & Jackson Blvd,TA1305000025,41.870167851,-87.6394943,41.8777079559,-87.6353211408,casual
9CC9CAC6A8B51409,electric_bike,2023-02-06 17:23:00,2023-02-06 17:25:39,,,,,41.79,-87.6,41.79,-87.6,member
F16C7ADEC24F6E2A,classic_bike,2023-02-10 07:31:19,2023-02-10 07:52:06,Morgan Ave & 14th Pl,TA1306000002,Wells St & Huron St,TA1306000012,41.862378,-87.651062,41.894722,-87.634362,member
62074E8BE236D123,electric_bike,2023-02-03 18:26:43,2023-02-03 18:32:15,Sheffield Ave & Kingsbury St,13154,Sheffield Ave & Fullerton Ave,TA1306000016,41.910587549,-87.653237224,41.9256018819,-87.6537080423,member
098ED181B07A9C91,classic_bike,2023-02-19 17:01:32,2023-02-19 17:14:17,DuSable Lake Shore Dr & Diversey Pkwy,TA1309000039,Wells St & Evergreen Ave,TA1308000049,41.932588,-87.636427,41.906724,-87.63483,casual
045E4FBCEEA32431,classic_bike,2023-02-28 16:51:35,2023-02-28 17:06:32,Canal St & Jackson Blvd,13138,New St & Illinois St,TA1306000013,41.877245,-87.639366,41.89084704062381,-87.61861681938171,member
F2F5C6E85F02EACB,electric_bike,2023-02-07 19:51:53,2023-02-07 20:09:46,,,Ashland Ave & Wellington Ave,13269,41.88,-87.65,41.936083,-87.669807,member
639DC72083A3838B,electric_bike,2023-02-01 12:42:22,2023-02-01 12:52:56,Keystone Ave & Fullerton Ave,16010,,,41.924566746,-87.727901816,41.94,-87.75,member
A1B31B23B76070F4,electric_bike,2023-02-24 15:10:52,2023-02-24 15:25:19,Halsted St & Clybourn Ave,331,Broadway & Cornelia Ave,13278,41.90969066666667,-87.64814183333333,41.945529,-87.646439,casual
8B85F6CD057F9BA5,electric_bike,2023-02-15 15:31:07,2023-02-15 15:39:53,,,,,41.95,-87.65,41.93,-87.66,member
47077937DFE1B9F3,classic_bike,2023-02-07 11:15:14,2023-02-07 11:26:17,Clinton St & Madison St,TA1305000032,Michigan Ave & Lake St,TA1305000011,41.882751965685614,-87.64119029045105,41.886024,-87.624117,casual
A9F7EF44DA8CA008,electric_bike,2023-02-16 08:31:58,2023-02-16 08:41:35,Indiana Ave & Roosevelt Rd,SL-005,Cityfront Plaza Dr & Pioneer Ct,13427,41.86789316666667,-87.62302633333333,41.890573,-87.622072,member
3A97EB210610C913,classic_bike,2023-02-19 16:08:57,2023-02-19 16:28:51,Cityfront Plaza Dr & Pioneer Ct,13427,Ashland Ave & Division St,13061,41.890573,-87.622072,41.90345,-87.667747,member
08450468463CC91C,electric_bike,2023-02-08 08:58:24,2023-02-08 09:03:33,,,California Ave & 26th St,15692,41.85,-87.68,41.8436799145765,-87.69496858119965,member
90C01AF8252C30D5,classic_bike,2023-02-12 13:10:52,2023-02-12 13:22:51,Franklin St & Jackson Blvd,TA1305000025,Cityfront Plaza Dr & Pioneer Ct,13427,41.8777079559,-87.6353211408,41.890573,-87.622072,member
E9D9072EB177779E,electric_bike,2023-02-21 21:45:11,2023-02-21 21:50:13,Woodlawn Ave & 55th St,TA1307000164,,,41.795309,-87.5964665,41.8,-87.6,member
242CD95412695C01,electric_bike,2023-02-25 18:59:45,2023-02-25 19:03:33,,,Ogden Ave & Race Ave,13194,41.89,-87.65,41.891795,-87.658751,member
C9ABA92BA47C00A0,electric_bike,2023-02-03 11:14:28,2023-02-03 11:22:23,Paulina St & Flournoy St,KA1504000104,Damen Ave & Chicago Ave,13132,41.872980714,-87.668848157,41.895769,-87.67722,member
D5D4B1BBD14C59B0,electric_bike,2023-02-19 11:11:09,2023-02-19 11:16:16,McClurg Ct & Erie St,KA1503000041,McClurg Ct & Erie St,KA1503000041,41.894516,-87.61788866666667,41.894503,-87.617854,casual
494A41A9FE06E091,electric_bike,2023-02-17 00:34:26,2023-02-17 00:37:00,Western Ave & Winnebago Ave,13068,Milwaukee Ave & Wabansia Ave,13243,41.915586472,-87.687148094,41.912616,-87.681391,member
04128DE0985C96FB,electric_bike,2023-02-12 11:23:54,2023-02-12 11:55:42,Wells St & Evergreen Ave,TA1308000049,,,41.906798244,-87.63507247,41.93,-87.71,member
C1A4FC1C944D2619,electric_bike,2023-02-24 16:25:55,2023-02-24 16:35:06,Campbell Ave & North Ave,13257,Winchester Ave & Elston Ave,KA1504000140,41.910511613,-87.689520955,41.92409085038,-87.6764600747,member
9C12B17821786BEF,electric_bike,2023-02-15 08:45:43,2023-02-15 08:51:36,,,Keystone Ave & Montrose Ave,KA1504000164,41.96,-87.71,41.96110801623,-87.7289701012,member
ECAD3FD3C13958D3,classic_bike,2023-02-12 09:59:32,2023-02-12 10:08:58,Clinton St & Lake St,13021,Millennium Park,13008,41.885637,-87.641823,41.8810317,-87.62408432,member
263F8CCE0908F663,electric_bike,2023-02-28 07:48:39,2023-02-28 07:59:11,Canal St & Madison St,13341,,,41.881976843,-87.639837027,41.89,-87.62,casual
9461827B12B9A66F,classic_bike,2023-02-04 08:54:47,2023-02-04 09:06:27,Dearborn Pkwy & Delaware Pl,TA1307000128,Michigan Ave & Madison St,13036,41.898969,-87.629912,41.882134,-87.625125,member
97AB5C114A473B37,electric_bike,2023-02-09 09:10:44,2023-02-09 09:17:48,Clinton St & Madison St,TA1305000032,,,41.882794261,-87.641575813,41.87,-87.64,member
6AF5DFC7B73153DA,classic_bike,2023-02-10 07:49:50,2023-02-10 08:00:56,Halsted St & Polk St,TA1307000121,Aberdeen St & Monroe St,13156,41.87184,-87.64664,41.880419,-87.655519,member
C1BC704CA7E43C55,classic_bike,2023-02-19 14:57:16,2023-02-19 15:06:47,Clark St & Schiller St,TA1309000024,DuSable Lake Shore Dr & Diversey Pkwy,TA1309000039,41.907993,-87.631501,41.932588,-87.636427,casual
429639920984E83A,docked_bike,2023-02-25 11:51:27,2023-02-25 12:00:30,Western Ave & 104th St,20123,Western Ave & 111th St,20205,41.704587,-87.681203,41.691211,-87.681297,casual
E75A8D0FAC2B7F4B,electric_bike,2023-02-12 21:23:03,2023-02-12 21:34:48,Benson Ave & Church St,596,,,42.04824283333333,-87.683471,42.05,-87.68,casual
23F884CCEF4B71F1,classic_bike,2023-02-25 18:46:15,2023-02-25 19:00:48,Canal St & Taylor St,15550,Wabash Ave & 9th St,TA1309000010,41.870257,-87.639474,41.870769,-87.625734,casual
706FF5AEE93FAEBC,electric_bike,2023-02-28 16:38:26,2023-02-28 16:44:24,St. Clair St & Erie St,13016,Wells St & Elm St,KA1504000135,41.894250666666665,-87.62303666666666,41.903222,-87.634324,casual
3A7D877A6909C5F8,electric_bike,2023-02-27 14:33:57,2023-02-27 14:49:58,LaSalle Dr & Huron St,KP1705001026,Public Rack - Washtenaw Ave & Superior St,855,41.895032167,-87.632460475,41.89,-87.7,casual
2B8FADAFC0055703,electric_bike,2023-02-17 20:57:13,2023-02-17 21:02:45,Southport Ave & Wellington Ave,TA1307000006,Broadway & Barry Ave,13137,41.935808,-87.66356016666667,41.93758231600629,-87.6440978050232,member
AB78F7A33E4D6E34,classic_bike,2023-02-01 23:06:41,2023-02-01 23:18:47,Aberdeen St & Monroe St,13156,Kingsbury St & Erie St,13265,41.880419,-87.655519,41.89380805624359,-87.64169722795485,member
6BD9FEFB15489725,electric_bike,2023-02-08 17:26:42,2023-02-08 17:31:58,Sheffield Ave & Wellington Ave,TA1307000052,Ashland Ave & Wellington Ave,13269,41.936455131,-87.65262568,41.936083,-87.669807,member
A591892AD3F64BC9,classic_bike,2023-02-06 05:12:43,2023-02-06 05:15:01,Wells St & Walton St,TA1306000011,Clark St & Elm St,TA1307000039,41.89993001,-87.63443007,41.902973,-87.63128,member
F7644185B0A994C0,electric_bike,2023-02-12 16:51:27,2023-02-12 17:01:53,Clark St & Wellington Ave,TA1307000136,,,41.936498284,-87.647636414,41.93,-87.65,member
400043DB9038EFF6,classic_bike,2023-02-06 08:34:08,2023-02-06 08:41:21,Michigan Ave & 8th St,623,Millennium Park,13008,41.872773,-87.623981,41.8810317,-87.62408432,member
2F332125BCBE0082,classic_bike,2023-02-09 23:39:37,2023-02-09 23:49:12,Wells St & Hubbard St,TA1307000151,Ogden Ave & Race Ave,13194,41.889906,-87.634266,41.891795,-87.658751,member
E5022EA4C04C45FA,electric_bike,2023-02-15 15:12:44,2023-02-15 15:15:59,Racine Ave & 35th St,15446,Morgan St & 31st St,TA1308000046,41.830662012,-87.656154156,41.8378,-87.65114,member
98EB7705E6728275,electric_bike,2023-02-14 15:12:54,2023-02-14 15:16:12,,,,,41.8,-87.6,41.79,-87.6,member
BE88C0BAC86E4312,electric_bike,2023-02-26 14:28:25,2023-02-26 14:31:22,Calumet Ave & 51st St,15470,Cottage Grove Ave & 51st St,TA1309000067,41.802304745,-87.618073106,41.803038,-87.606615,member
23E6AD811AA104FD,classic_bike,2023-02-13 20:25:53,2023-02-13 20:27:37,Wabash Ave & Cermak Rd,TA1305000001,Wentworth Ave & Cermak Rd,13075,41.852619,-87.626488,41.85308455741279,-87.63193130493164,member
010CC4343E638860,electric_bike,2023-02-21 17:45:54,2023-02-21 17:49:08,,,Central Park Ave & Elbridge Ave,15644,41.93,-87.71,41.93533728263,-87.7168892935,casual
4A47EE19B5EF66AB,classic_bike,2023-02-14 20:48:35,2023-02-14 21:12:02,Leavitt St & Armitage Ave,TA1309000029,Central Park Ave & Bloomingdale Ave,18017,41.917805,-87.682437,41.914166,-87.716755,member
68424673B84365ED,electric_bike,2023-02-14 16:37:05,2023-02-14 16:39:12,Dearborn St & Erie St,13045,State St & Chicago Ave,21544,41.89424983333333,-87.62926916666666,41.89661720040753,-87.62857854366302,member
E4DFAE3BE40C08D6,classic_bike,2023-02-25 11:00:43,2023-02-25 11:08:57,Clark St & Wrightwood Ave,TA1305000014,Clark St & Newport St,632,41.929546,-87.643118,41.94454,-87.654678,member
1D11B9E58E2232E9,classic_bike,2023-02-13 06:34:24,2023-02-13 06:37:38,Wells St & Hubbard St,TA1307000151,State St & Kinzie St,13050,41.889906,-87.634266,41.88937546663168,-87.62707650661469,member
76BDB9C4D2438E18,classic_bike,2023-02-11 13:16:18,2023-02-11 13:30:27,Damen Ave & Pierce Ave,TA1305000041,Clifton Ave & Armitage Ave,TA1307000163,41.9093960065,-87.6776919292,41.918216,-87.656936,casual
0BDF835041B7E6CE,classic_bike,2023-02-14 16:04:33,2023-02-14 16:20:46,Wolcott Ave & Polk St,TA1309000064,Honore St & Division St,TA1305000034,41.871262,-87.673688,41.903119,-87.673935,member
AFAF5EA9791D45F8,electric_bike,2023-02-05 15:30:42,2023-02-05 15:35:10,,,,,41.93,-87.64,41.93,-87.64,member
CC7A7BBA41C5FDAC,classic_bike,2023-02-11 17:15:15,2023-02-11 17:16:15,Millennium Park,13008,Millennium Park,13008,41.8810317,-87.62408432,41.8810317,-87.62408432,casual
C912010122C11A1E,electric_bike,2023-02-01 06:53:06,2023-02-01 07:03:41,Halsted St & Willow St,TA1307000166,Wood St & Milwaukee Ave,13221,41.913860202,-87.64870584,41.907655,-87.672552,member
F4615FFB3A676B8F,electric_bike,2023-02-07 16:47:35,2023-02-07 16:57:59,Green St & Washington Blvd,13053,Loomis St & Lexington St,13332,41.88322556,-87.648741126,41.87222873224032,-87.66136385500431,casual
6DD8B8CE50037AD8,classic_bike,2023-02-23 17:50:45,2023-02-23 17:55:05,Ravenswood Ave & Lawrence Ave,TA1309000066,Clark St & Winnemac Ave,TA1309000035,41.96909,-87.674237,41.97334764047304,-87.6678554713726,member
240B2910901E4D6C,electric_bike,2023-02-18 23:39:07,2023-02-18 23:49:41,,,Troy St & North Ave,15653,41.91,-87.69,41.90976930169,-87.7052804871,casual
66A31866DFF19BCE,classic_bike,2023-02-11 17:12:58,2023-02-11 17:52:07,Lincoln Ave & Fullerton Ave,TA1309000058,Lincoln Ave & Fullerton Ave,TA1309000058,41.924161029067626,-87.64638036489487,41.924161029067626,-87.64638036489487,casual
2CD891A301D14926,classic_bike,2023-02-26 13:43:39,2023-02-26 14:19:28,Ogden Ave & Chicago Ave,TA1305000020,Eckhart Park,13289,41.896362458,-87.6540612729,41.89637337,-87.66098386,member
923B9615319E8CE6,electric_bike,2023-02-13 07:39:57,2023-02-13 07:54:23,,,Paulina Ave & North Ave,TA1305000037,41.92,-87.72,41.90985465216731,-87.66993016004562,member
91892AA51ADA64E5,electric_bike,2023-02-08 09:18:44,2023-02-08 09:24:42,Broadway & Cornelia Ave,13278,Racine Ave & Belmont Ave,TA1308000019,41.94555966666667,-87.646514,41.939743,-87.658865,member
4FE08B91CF8607B6,docked_bike,2023-02-13 20:33:15,2023-02-13 20:47:45,State St & Van Buren St,TA1305000035,Indiana Ave & Roosevelt Rd,SL-005,41.877181,-87.627844,41.867888,-87.623041,casual
73290FBF2125D134,electric_bike,2023-02-17 11:54:42,2023-02-17 11:54:48,,,,,41.89,-87.64,41.89,-87.64,member
9561D77F87C8E83F,electric_bike,2023-02-23 07:06:53,2023-02-23 07:09:28,Clark St & Winnemac Ave,TA1309000035,Ravenswood Ave & Lawrence Ave,TA1309000066,41.973341703,-87.667879224,41.96909,-87.674237,member
4CBD05D33B833433,classic_bike,2023-02-11 11:37:50,2023-02-11 11:49:59,Ravenswood Ave & Lawrence Ave,TA1309000066,Broadway & Sheridan Rd,13323,41.96909,-87.674237,41.952833,-87.649993,member
B91571DD0D60C31F,classic_bike,2023-02-10 13:15:23,2023-02-10 13:19:00,Wells St & Polk St,SL-011,Franklin St & Monroe St,TA1309000007,41.87273154226308,-87.63351649045944,41.880317,-87.635185,casual
DA9BB1C9C31406E9,classic_bike,2023-02-02 10:22:13,2023-02-02 10:27:46,Canal St & Monroe St,13056,Sangamon St & Lake St,TA1306000015,41.88169,-87.63953,41.88577925240433,-87.65102460980414,member
F20624711C54FB02,classic_bike,2023-02-10 19:55:26,2023-02-10 19:57:45,Wilton Ave & Diversey Pkwy,TA1306000014,Halsted St & Wrightwood Ave,TA1309000061,41.932418,-87.652705,41.929143,-87.649077,member
5F6728C41DF2AD79,electric_bike,2023-02-14 08:40:08,2023-02-14 08:45:18,Dearborn St & Monroe St,TA1305000006,Canal St & Jackson Blvd,13138,41.88116169,-87.629532933,41.877245,-87.639366,member
99DEFBE10BF91FC3,classic_bike,2023-02-19 21:07:09,2023-02-19 21:15:25,Larrabee St & Kingsbury St,TA1306000009,Ashland Ave & Chicago Ave,13247,41.897764,-87.642884,41.89595435734305,-87.6677280664444,member
FAC4E49E9A5618E9,electric_bike,2023-02-28 08:16:25,2023-02-28 08:22:20,Columbus Dr & Randolph St,13263,Clinton St & Lake St,13021,41.884441853,-87.61978364,41.885637,-87.641823,member
79D158C4FEE179A3,electric_bike,2023-02-05 16:24:05,2023-02-05 16:32:24,Ashland Ave & Division St,13061,Halsted St & Clybourn Ave,331,41.903500557,-87.667845249,41.909668,-87.648128,member
30490A80CE4A6E52,electric_bike,2023-02-19 10:41:14,2023-02-19 10:44:17,,,University Library (NU),605,42.06,-87.68,42.052939,-87.673447,member
B12F84CBF0F7B9C6,classic_bike,2023-02-24 16:51:26,2023-02-25 11:51:55,Franklin St & Lake St,TA1307000111,Wells St & Huron St,TA1306000012,41.885837,-87.6355,41.894722,-87.634362,casual
FA342A89E9C4139A,electric_bike,2023-02-07 07:48:23,2023-02-07 07:53:08,Walsh Park,18067,Damen Ave & Pierce Ave,TA1305000041,41.914586425,-87.668028474,41.9093960065,-87.6776919292,casual
5843C0B8526D2501,classic_bike,2023-02-03 10:41:36,2023-02-03 10:45:49,Ellis Ave & 60th St,KA1503000014,University Ave & 57th St,KA1503000071,41.78509714636,-87.6010727606,41.791478,-87.599861,member
C6F41F6F7B481B86,classic_bike,2023-02-23 13:19:30,2023-02-23 13:25:01,Franklin St & Jackson Blvd,TA1305000025,Wabash Ave & 9th St,TA1309000010,41.8777079559,-87.6353211408,41.870769,-87.625734,member
B2F53FC65280328E,classic_bike,2023-02-08 08:00:10,2023-02-08 08:09:19,Canal St & Adams St,13011,Wabash Ave & Wacker Pl,TA1307000131,41.879255,-87.639904,41.886875,-87.62603,member
6E4C841CA78F9F69,classic_bike,2023-02-26 15:09:32,2023-02-26 15:26:40,Wabash Ave & 9th St,TA1309000010,Dearborn Pkwy & Delaware Pl,TA1307000128,41.870769,-87.625734,41.898969,-87.629912,member
07E06D5795FB9C1E,classic_bike,2023-02-08 23:10:31,2023-02-08 23:13:27,Ellis Ave & 55th St,KA1504000076,University Ave & 57th St,KA1503000071,41.79430062054,-87.6014497734,41.791478,-87.599861,member
CD7609C932F89229,electric_bike,2023-02-12 15:52:51,2023-02-12 15:57:20,Loomis St & Lexington St,13332,Peoria St & Jackson Blvd,13158,41.872207761,-87.661401629,41.8776415962753,-87.64961779117584,member
5B9D319BAEB435B0,classic_bike,2023-02-28 00:00:51,2023-02-28 00:16:25,Dearborn St & Erie St,13045,LaSalle Dr & Huron St,KP1705001026,41.893992,-87.629318,41.894877,-87.632326,member
987C152ECD004353,electric_bike,2023-02-24 16:28:15,2023-02-24 17:08:10,Michigan Ave & Ida B Wells Dr,TA1305000010,LaSalle St & Illinois St,13430,41.876228929,-87.624355197,41.890762,-87.631697,member
57EA5BF55C92E475,electric_bike,2023-02-07 10:45:12,2023-02-07 10:50:31,,,Aberdeen St & Jackson Blvd,13157,41.87,-87.65,41.87772613,-87.65478743,member
B63AA16B67662157,electric_bike,2023-02-15 19:12:13,2023-02-15 19:16:39,Daley Center Plaza,TA1306000010,Clark St & 9th St (AMLI),SL-009,41.88394022,-87.629468322,41.870816,-87.631246,casual
4479E99A6C994DF3,electric_bike,2023-02-10 12:11:41,2023-02-10 12:22:32,,,DuSable Lake Shore Dr & Monroe St,13300,41.86,-87.62,41.880958,-87.616743,member
2391BD29FD745C5D,electric_bike,2023-02-10 21:58:43,2023-02-10 22:08:59,Halsted St & Roosevelt Rd,TA1305000017,,,41.867429972,-87.648671389,41.87,-87.66,member
2A7EC4C8BB4168B6,classic_bike,2023-02-18 10:40:31,2023-02-18 10:58:16,Western Ave & Walton St,KA1504000103,Larrabee St & Kingsbury St,TA1306000009,41.89841768945,-87.6865960164,41.897764,-87.642884,member
FFD7FE5286BB5E65,electric_bike,2023-02-25 12:42:50,2023-02-25 13:00:31,Cityfront Plaza Dr & Pioneer Ct,13427,Streeter Dr & Grand Ave,13022,41.890622666666665,-87.6220155,41.892278,-87.612043,casual
0912DFCB54830E48,classic_bike,2023-02-13 05:27:26,2023-02-13 05:29:25,Burling St & Diversey Pkwy,TA1309000036,Wilton Ave & Diversey Pkwy,TA1306000014,41.93314,-87.64776,41.932418,-87.652705,member
00FEA59E91622ADE,classic_bike,2023-02-17 20:45:51,2023-02-17 20:51:41,Damen Ave & Division St,13136,Leavitt St & North Ave,TA1308000005,41.903266,-87.678435,41.91050936666395,-87.6823890209198,member
BF84D3BF4C1C1624,electric_bike,2023-02-21 16:13:20,2023-02-21 16:23:21,,,Clinton St & Washington Blvd,WL-012,41.87,-87.67,41.88338,-87.64117,member
C6BC4C55F8835025,electric_bike,2023-02-08 05:22:54,2023-02-08 05:33:38,Clark St & Elm St,TA1307000039,Elston Ave & Cortland St,TA1305000039,41.903013229,-87.631599307,41.91643342912655,-87.66674637794495,member
769CF232AE0F0A30,classic_bike,2023-02-04 16:36:29,2023-02-04 16:53:52,New St & Illinois St,TA1306000013,Wells St & Elm St,KA1504000135,41.89084704062381,-87.61861681938171,41.903222,-87.634324,casual
7D598AC43223DB83,classic_bike,2023-02-01 11:20:26,2023-02-01 11:31:07,Clinton St & Lake St,13021,Daley Center Plaza,TA1306000010,41.885637,-87.641823,41.884241,-87.629634,casual
1362E643EB3D6EBA,classic_bike,2023-02-14 13:05:51,2023-02-14 13:23:22,Michigan Ave & Washington St,13001,Calumet Ave & 18th St,13102,41.8839840647265,-87.6246839761734,41.85761755293753,-87.61941075325012,member
E9D91630462DBD69,classic_bike,2023-02-24 09:56:31,2023-02-24 09:56:33,Loomis St & Lexington St,13332,Loomis St & Lexington St,13332,41.87222873224032,-87.66136385500431,41.87222873224032,-87.66136385500431,member
B476EF6E4B507407,classic_bike,2023-02-12 09:23:30,2023-02-12 09:27:46,Wells St & Elm St,KA1504000135,Wells St & Concord Ln,TA1308000050,41.903222,-87.634324,41.912133,-87.634656,member
F972F1E94D42613A,electric_bike,2023-02-06 19:05:41,2023-02-06 19:17:11,Michigan Ave & Oak St,13042,Clark St & Armitage Ave,13146,41.9006405,-87.62379966666667,41.918306,-87.636282,member
0F500822EE04B7A7,electric_bike,2023-02-23 11:55:44,2023-02-23 12:05:18,,,Calumet Ave & 21st St,15546,41.86,-87.66,41.85418424947,-87.6191537415,member
C6BE1F729B309958,classic_bike,2023-02-23 07:54:53,2023-02-23 08:24:07,Seeley Ave & Roscoe St,13144,Clinton St & Washington Blvd,WL-012,41.943403,-87.679618,41.88338,-87.64117,member
C8436D344220052A,classic_bike,2023-02-16 12:34:16,2023-02-16 12:38:14,Clifton Ave & Armitage Ave,TA1307000163,Sheffield Ave & Kingsbury St,13154,41.918216,-87.656936,41.910522,-87.653106,member
5F42BDFBB93AAEFC,electric_bike,2023-02-19 15:30:50,2023-02-19 15:47:55,State St & Chicago Ave,21544,McClurg Ct & Ohio St,TA1306000029,41.896603107,-87.628695726,41.892592119709725,-87.61728912591934,casual
AA0233110A6AB1E9,classic_bike,2023-02-17 15:21:33,2023-02-17 15:27:42,Clinton St & 18th St,TA1307000044,Clinton St & Roosevelt Rd,WL-008,41.85795,-87.640826,41.8671177825,-87.6410879593,casual
25433DB177B5317F,electric_bike,2023-02-12 15:33:37,2023-02-12 15:36:02,DuSable Lake Shore Dr & Monroe St,13300,DuSable Lake Shore Dr & Monroe St,13300,41.880970478,-87.616776943,41.880958,-87.616743,casual
34835AFFDB8A44C7,classic_bike,2023-02-20 18:00:29,2023-02-20 18:13:08,Canal St & Madison St,13341,Carpenter St & Huron St,13196,41.882409,-87.639767,41.894556,-87.653449,member
D1ABEE5D200E68E2,classic_bike,2023-02-19 13:41:48,2023-02-19 14:09:04,Museum of Science and Industry,KA1503000074,Burnham Harbor,15545,41.79172820953,-87.583945009,41.85741178707404,-87.61379152536392,member
9DE6E1D4AAC46E85,electric_bike,2023-02-28 17:31:12,2023-02-28 18:07:41,,,Western Ave & Lunt Ave,RP-005,41.9,-87.7,42.0085943972,-87.6904922389,member
DE8AA98C0E0CB3E6,classic_bike,2023-02-06 06:21:24,2023-02-06 06:32:02,Halsted St & Wrightwood Ave,TA1309000061,Clark St & Newport St,632,41.929143,-87.649077,41.94454,-87.654678,member
3772AEA814C02C68,classic_bike,2023-02-06 06:22:22,2023-02-06 06:24:35,Cornell Ave & Hyde Park Blvd,KA1503000007,Lake Park Ave & 53rd St,KA1503000059,41.802406,-87.586924,41.79949429373,-87.5864498959,member
6CBF4FDF3B5655E9,classic_bike,2023-02-10 22:13:39,2023-02-10 22:19:55,900 W Harrison St,13028,Throop St & Taylor St,13139,41.874754,-87.649807,41.868968,-87.659141,casual
115D62D9E8150A8C,electric_bike,2023-02-24 13:35:25,2023-02-24 13:39:24,Stockton Dr & Wrightwood Ave,13276,Halsted St & Wrightwood Ave,TA1309000061,41.93132233333333,-87.63879766666666,41.929143,-87.649077,member
BE63833CDFFA33CB,classic_bike,2023-02-25 13:18:24,2023-02-25 13:20:51,Michigan Ave & Ida B Wells Dr,TA1305000010,Michigan Ave & Ida B Wells Dr,TA1305000010,41.876243,-87.624426,41.876243,-87.624426,casual
C0FA2E582912EB47,electric_bike,2023-02-21 21:07:30,2023-02-21 21:10:44,Sedgwick St & North Ave,TA1307000038,Larrabee St & Division St,KA1504000079,41.911375642,-87.638682485,41.90348607004,-87.6433534936,member
488510E65087303F,classic_bike,2023-02-02 09:19:27,2023-02-02 09:25:13,Racine Ave & Washington Blvd,654,Wacker Dr & Washington St,KA1503000072,41.883073,-87.656952,41.88314336439022,-87.63724207878113,casual
098B65480EF9CCB6,electric_bike,2023-02-15 17:57:52,2023-02-15 18:07:12,,,,,41.86,-87.65,41.85,-87.67,casual
5A76728059F92D72,classic_bike,2023-02-28 08:14:34,2023-02-28 08:29:40,Ashland Ave & Division St,13061,Morgan St & Lake St*,chargingstx4,41.90345,-87.667747,41.88549170626906,-87.65228927135468,member
54BE474FBB607FDE,electric_bike,2023-02-23 13:54:42,2023-02-23 14:03:40,Racine Ave & Belmont Ave,TA1308000019,Racine Ave & Belmont Ave,TA1308000019,41.93969833333333,-87.65887083333334,41.939743,-87.658865,casual
7CD4A832495AA675,classic_bike,2023-02-02 08:01:36,2023-02-02 08:05:00,Franklin St & Monroe St,TA1309000007,Franklin St & Lake St,TA1307000111,41.880317,-87.635185,41.885837,-87.6355,member
2619A6B2E40D2B5C,classic_bike,2023-02-26 09:50:28,2023-02-26 09:56:28,Sheffield Ave & Wellington Ave,TA1307000052,Clark St & Wrightwood Ave,TA1305000014,41.9362534831413,-87.65266209840775,41.929546,-87.643118,member
D3E686BF89B5308D,electric_bike,2023-02-06 17:14:38,2023-02-06 17:22:05,,,,,41.97,-87.68,41.99,-87.67,member
0319706AAB7A378C,electric_bike,2023-02-16 15:00:05,2023-02-16 15:02:26,Larrabee St & Kingsbury St,TA1306000009,Orleans St & Chestnut St (NEXT Apts),620,41.897634387,-87.642853737,41.898203,-87.637536,member
B99722566341E78F,classic_bike,2023-02-02 09:37:10,2023-02-02 09:48:02,Ellis Ave & 60th St,KA1503000014,Lake Park Ave & 53rd St,KA1503000059,41.78509714636,-87.6010727606,41.79949429373,-87.5864498959,member
ABF5CB9FD440F919,electric_bike,2023-02-23 20:24:39,2023-02-23 20:30:21,Halsted St & Dickens Ave,13192,Clark St & Wrightwood Ave,TA1305000014,41.919952,-87.64889216666667,41.929546,-87.643118,member
5937D1D7A5BFAAD9,classic_bike,2023-02-10 23:51:30,2023-02-10 23:57:16,Broadway & Barry Ave,13137,Clark St & Newport St,632,41.93758231600629,-87.6440978050232,41.94454,-87.654678,member
0D7E1A1A43CC482D,electric_bike,2023-02-15 17:22:39,2023-02-15 17:27:13,Clinton St & Roosevelt Rd,WL-008,Halsted St & Maxwell St,TA1309000001,41.867356062,-87.641034245,41.864883,-87.647071,member
E31B7C4180661AB2,classic_bike,2023-02-14 17:29:49,2023-02-14 17:39:27,McClurg Ct & Erie St,KA1503000041,Clark St & Elm St,TA1307000039,41.894503,-87.617854,41.902973,-87.63128,member
C7B1BE37E2184D6C,classic_bike,2023-02-19 14:18:53,2023-02-19 14:31:57,Walsh Park,18067,Albany Ave & Bloomingdale Ave,15655,41.91461,-87.667968,41.91402671273,-87.705126462,member
16BE7820732C2AD5,electric_bike,2023-02-27 14:02:16,2023-02-27 14:08:29,Sheridan Rd & Montrose Ave,TA1307000107,Clark St & Berwyn Ave,KA1504000146,41.961640716,-87.654651046,41.97803062248656,-87.66856491565704,member
409F7FA74677E888,classic_bike,2023-02-16 07:33:16,2023-02-16 07:39:45,Clark St & Elm St,TA1307000039,LaSalle St & Illinois St,13430,41.902973,-87.63128,41.890762,-87.631697,member
00E55C9B86F0C406,electric_bike,2023-02-19 13:48:04,2023-02-19 14:04:00,Michigan Ave & Ida B Wells Dr,TA1305000010,Adler Planetarium,13431,41.876258254,-87.624374986,41.866095,-87.607267,casual
967884CBEA245405,classic_bike,2023-02-15 12:08:57,2023-02-15 12:14:20,New St & Illinois St,TA1306000013,St. Clair St & Erie St,13016,41.89084704062381,-87.61861681938171,41.89434513742426,-87.62279838323593,member
E1E40E95287F3A2E,classic_bike,2023-02-27 18:11:02,2023-02-27 18:31:57,Dusable Harbor,KA1503000064,State St & Harrison St,SL-007,41.886976,-87.612813,41.874053,-87.627716,casual
C7F7ACBF8F7B508F,electric_bike,2023-02-26 18:17:40,2023-02-26 18:37:49,Dearborn Pkwy & Delaware Pl,TA1307000128,Clark St & Newport St,632,41.899004579,-87.629927993,41.94454,-87.654678,member
B4EA4D9462520C80,docked_bike,2023-02-17 08:36:03,2023-02-17 08:40:37,Larrabee St & North Ave,TA1306000008,Larrabee St & Kingsbury St,TA1306000009,41.91021,-87.6435,41.897764,-87.642884,casual
E99ED7840AD88A4E,electric_bike,2023-02-19 15:59:37,2023-02-19 16:14:27,Ritchie Ct & Banks St,KA1504000134,Fairbanks Ct & Grand Ave,TA1305000003,41.90681994,-87.62623477,41.89184737210993,-87.62058019638062,casual
71420E67A6965CB7,classic_bike,2023-02-16 08:45:49,2023-02-16 09:05:50,Clark St & Touhy Ave,RP-007,Clark St & Touhy Ave,RP-007,42.01256011541,-87.6743671152,42.01256011541,-87.6743671152,member
E1E7CED24CD4C45E,electric_bike,2023-02-25 16:22:12,2023-02-25 16:36:40,Loomis St & Lexington St,13332,Wabash Ave & Roosevelt Rd,TA1305000002,41.872172117,-87.661278605,41.867227,-87.625961,casual
EF6840E9A805D221,classic_bike,2023-02-15 14:16:13,2023-02-15 14:24:24,Clark St & Wellington Ave,TA1307000136,Sheffield Ave & Waveland Ave,TA1307000126,41.9364968219,-87.6475386582,41.949399,-87.654529,member
9CEF6FD7F9113E7C,classic_bike,2023-02-15 07:18:23,2023-02-15 07:28:29,Wells St & Concord Ln,TA1308000050,Wells St & Hubbard St,TA1307000151,41.912133,-87.634656,41.889906,-87.634266,casual
EBDD23240D716244,classic_bike,2023-02-27 12:14:27,2023-02-27 12:17:20,Central Park Ave & Elbridge Ave,15644,Kimball Ave & Belmont Ave,KA150400009X,41.93533728263,-87.7168892935,41.93939395344302,-87.71206766366959,member
7912EB23146AE954,classic_bike,2023-02-15 14:57:31,2023-02-15 15:02:02,Clifton Ave & Armitage Ave,TA1307000163,Larrabee St & Webster Ave,13193,41.918216,-87.656936,41.921822,-87.64414,member
DEF3962C50140B01,classic_bike,2023-02-23 20:06:06,2023-02-23 20:14:23,Ashland Ave & Belle Plaine Ave,13249,Clark St & Newport St,632,41.956057,-87.668835,41.94454,-87.654678,member
11FC86350C416718,classic_bike,2023-02-20 13:34:06,2023-02-20 13:36:17,Ellis Ave & 60th St,KA1503000014,Ellis Ave & 58th St,TA1309000011,41.78509714636,-87.6010727606,41.788746,-87.601334,member
8471420645D82850,electric_bike,2023-02-08 07:55:57,2023-02-08 07:58:11,,,Wells St & Hubbard St,TA1307000151,41.89,-87.63,41.889906,-87.634266,member
D2E1B92E5BC97183,classic_bike,2023-02-01 16:38:03,2023-02-01 16:43:29,MLK Jr Dr & 29th St,TA1307000139,Indiana Ave & 31st St,TA1308000036,41.842052,-87.617,41.838842,-87.621857,member
1AC18580F22B8218,electric_bike,2023-02-14 21:54:25,2023-02-14 22:06:00,Halsted St & 18th St,13099,Emerald Ave & 31st St,TA1309000055,41.857522964,-87.646004319,41.838198,-87.645143,member
7CC45015D4EEC7BB,classic_bike,2023-02-13 07:35:43,2023-02-13 08:16:16,Clark St & Drummond Pl,TA1307000142,Wolcott Ave & Polk St,TA1309000064,41.931248,-87.644336,41.871262,-87.673688,member
DF38FC1AA698F0FC,classic_bike,2023-02-12 10:55:01,2023-02-12 11:01:32,Lincoln Ave & Fullerton Ave,TA1309000058,Clark St & Lincoln Ave,13179,41.924161029067626,-87.64638036489487,41.915689,-87.6346,member
E19B930329790EE4,electric_bike,2023-02-08 15:27:28,2023-02-08 15:35:41,,,Ellis Ave & 53rd St,KA1503000052,41.79,-87.6,41.79933626261,-87.6009581145,member
D2EE41F45CDFE186,classic_bike,2023-02-05 20:39:35,2023-02-05 20:59:24,Ashland Ave & Augusta Blvd,13248,Damen Ave & Chicago Ave,13132,41.899643,-87.6677,41.895769,-87.67722,casual
505B034DCF972410,electric_bike,2023-02-10 15:46:52,2023-02-10 15:58:58,Clark St & Leland Ave,TA1309000014,Pine Grove Ave & Waveland Ave,TA1307000150,41.967077,-87.66744766666666,41.94947274088333,-87.64645278453827,member
D87CBC454A7F04F4,electric_bike,2023-02-19 10:33:13,2023-02-19 10:46:46,,,,,42.05,-87.69,42.06,-87.67,casual
C9B0CCC788E94FC8,electric_bike,2023-02-26 12:03:13,2023-02-26 12:33:39,Wood St & Milwaukee Ave,13221,Damen Ave & Pierce Ave,TA1305000041,41.907575369,-87.672477961,41.9093960065,-87.6776919292,member
8C4E49F17FC16BAF,electric_bike,2023-02-15 18:27:29,2023-02-15 18:38:55,Greenview Ave & Fullerton Ave,TA1307000001,Broadway & Waveland Ave,13325,41.925456524,-87.665857911,41.949074,-87.648636,member
7BE25C3BF339C0AF,electric_bike,2023-02-10 17:39:18,2023-02-10 17:49:23,Walsh Park,18067,California Ave & Cortez St,17660,41.914612055,-87.667907238,41.900363,-87.696704,member
D9E841CAF0889711,electric_bike,2023-02-14 07:44:30,2023-02-14 07:53:30,Lincoln Ave & Belle Plaine Ave,TA1309000026,Broadway & Wilson Ave,13074,41.956057549,-87.680271745,41.965221,-87.658139,member
CA33010A47FBBFA2,classic_bike,2023-02-07 15:19:48,2023-02-07 15:22:37,Lincoln Ave & Diversey Pkwy,TA1307000064,Racine Ave & Fullerton Ave,TA1306000026,41.932225,-87.658617,41.925566,-87.658416,member
1674E7E330015C10,electric_bike,2023-02-27 08:05:08,2023-02-27 08:15:23,Damen Ave & Chicago Ave,13132,Damen Ave & Cortland St,13133,41.895659328,-87.677157044,41.915983,-87.677335,casual
9DC9E5C22F76AD68,classic_bike,2023-02-14 17:15:27,2023-02-14 17:38:27,Wolcott Ave & Polk St,TA1309000064,California Ave & Cortez St,17660,41.871262,-87.673688,41.900363,-87.696704,member
99F8698A9C96F7DB,electric_bike,2023-02-05 10:14:51,2023-02-05 10:35:00,Wabash Ave & 16th St,SL-012,Clark St & Elm St,TA1307000039,41.86036416666666,-87.62584416666667,41.902973,-87.63128,member
C569A1ED2B1419B4,electric_bike,2023-02-25 18:38:56,2023-02-25 18:43:57,Halsted St & Polk St,TA1307000121,Clinton St & Tilden St,13037,41.87180866666667,-87.6466365,41.875885,-87.640795,member
820E97CD1FC36523,classic_bike,2023-02-05 22:19:40,2023-02-05 22:31:37,DuSable Lake Shore Dr & Belmont Ave,TA1309000049,Clark St & Armitage Ave,13146,41.940775,-87.639192,41.918306,-87.636282,member
7526F98CF1F0A0A0,classic_bike,2023-02-28 16:59:19,2023-02-28 17:16:44,Larrabee St & Kingsbury St,TA1306000009,McClurg Ct & Ohio St,TA1306000029,41.897764,-87.642884,41.892592119709725,-87.61728912591934,member
684A327AD8FA993F,electric_bike,2023-02-05 12:11:17,2023-02-05 12:19:34,Wells St & Concord Ln,TA1308000050,LaSalle St & Illinois St,13430,41.911996484,-87.634770989,41.890762,-87.631697,member
120F7A54455A622D,classic_bike,2023-02-06 19:31:12,2023-02-06 19:37:00,Wells St & Concord Ln,TA1308000050,Clybourn Ave & Division St,TA1307000115,41.912133,-87.634656,41.904613,-87.640552,member
D72171B2C0220BBC,electric_bike,2023-02-02 19:44:16,2023-02-02 19:49:58,Central Park Ave & Ogden Ave,15685,Lawndale Ave & 30th St,334.0,41.853895783,-87.715188742,41.84,-87.72,casual
4341ED65F19E00ED,electric_bike,2023-02-27 18:39:53,2023-02-27 18:45:15,Wells St & Concord Ln,TA1308000050,Halsted St & Clybourn Ave,331,41.912037373,-87.634763718,41.909668,-87.648128,member
4375FB1C16430B5B,classic_bike,2023-02-24 08:06:23,2023-02-24 08:09:26,Lincoln Park Conservatory,LP-,Lakeview Ave & Fullerton Pkwy,TA1309000019,41.92393131136619,-87.63582453131676,41.925858,-87.638973,member
83F39E28B788D960,classic_bike,2023-02-10 08:22:30,2023-02-10 08:43:14,Clark St & Elm St,TA1307000039,Peoria St & Jackson Blvd,13158,41.902973,-87.63128,41.8776415962753,-87.64961779117584,member
17A115292489D50B,electric_bike,2023-02-20 16:40:40,2023-02-20 18:38:55,,,Sheridan Rd & Buena Ave,TA1309000027,41.9,-87.63,41.958494,-87.654966,member
AA0EF48DC88630B2,electric_bike,2023-02-14 08:11:21,2023-02-14 08:15:18,McClurg Ct & Erie St,KA1503000041,Dearborn St & Erie St,13045,41.894049168,-87.618009329,41.893992,-87.629318,casual
436F68407CBE301A,classic_bike,2023-02-14 16:58:17,2023-02-14 17:10:58,Canal St & Madison St,13341,Wood St & Hubbard St,13432,41.882409,-87.639767,41.889899,-87.671473,casual
F9DBDCFB557C8D1D,classic_bike,2023-02-28 07:53:50,2023-02-28 08:18:42,Clark St & Wrightwood Ave,TA1305000014,Dearborn St & Monroe St,TA1305000006,41.929546,-87.643118,41.881319815,-87.6295209193,member
1DC79B92C19A541D,electric_bike,2023-02-20 16:44:26,2023-02-20 16:45:06,Halsted St & Wrightwood Ave,TA1309000061,Halsted St & Wrightwood Ave,TA1309000061,41.92915416666666,-87.64911433333333,41.929143,-87.649077,casual
2C2AC79337918A43,electric_bike,2023-02-25 19:07:08,2023-02-25 19:10:48,Ellis Ave & 60th St,KA1503000014,,,41.785143833333336,-87.60108383333333,41.79,-87.6,member
026C9B515BAEBC78,docked_bike,2023-02-13 14:56:28,2023-02-13 15:22:05,Orleans St & Elm St,TA1306000006,Wabash Ave & Grand Ave,TA1307000117,41.902924,-87.637715,41.891466,-87.626761,casual
F08F5E23D5FB30F9,classic_bike,2023-02-15 06:57:43,2023-02-15 07:03:47,Broadway & Cornelia Ave,13278,Wilton Ave & Belmont Ave,TA1307000134,41.945529,-87.646439,41.940231918108594,-87.65294373035431,member
FFEC625627220DE6,classic_bike,2023-02-21 11:16:30,2023-02-21 11:18:55,Sheridan Rd & Lawrence Ave,TA1309000041,Clarendon Ave & Leland Ave,TA1307000119,41.969517,-87.654691,41.967968,-87.650001,member
2965E4E19FC858E7,classic_bike,2023-02-14 18:17:37,2023-02-14 18:26:11,Halsted St & Roosevelt Rd,TA1305000017,Clinton St & Jackson Blvd,638,41.867324,-87.648625,41.87831661183069,-87.64098107814789,member
6F6419F3B3C0FFC7,classic_bike,2023-02-08 09:46:09,2023-02-08 09:55:38,Cornell Ave & Hyde Park Blvd,KA1503000007,University Ave & 57th St,KA1503000071,41.802406,-87.586924,41.791478,-87.599861,member
D5985611A25674B3,electric_bike,2023-02-22 05:54:25,2023-02-22 06:06:26,Clark St & Schiller St,TA1309000024,Wacker Dr & Washington St,KA1503000072,41.908076406,-87.631489158,41.88314336439022,-87.63724207878113,member
BF5A169D4D24F3A6,classic_bike,2023-02-03 10:14:44,2023-02-03 10:16:19,Broadway & Sheridan Rd,13323,Broadway & Waveland Ave,13325,41.952833,-87.649993,41.949074,-87.648636,member
EF89CB43D4A75498,electric_bike,2023-02-18 20:13:55,2023-02-18 20:18:23,Dearborn St & Erie St,13045,Mies van der Rohe Way & Chestnut St,15529,41.89423016666667,-87.62915766666667,41.8985866514,-87.6219152258,casual
1B866875CD8869EA,electric_bike,2023-02-13 18:11:44,2023-02-13 18:16:24,Leavitt St & Division St,658,Western Ave & Walton St,KA1504000103,41.902983069,-87.683713913,41.89841768945,-87.6865960164,member
80D44ACC82AE7E76,electric_bike,2023-02-13 17:15:30,2023-02-13 17:23:30,Dearborn St & Erie St,13045,Sangamon St & Lake St,TA1306000015,41.894163847,-87.629346728,41.88577925240433,-87.65102460980414,member
CBB18C909CA322CD,electric_bike,2023-02-25 14:53:29,2023-02-25 15:03:19,Southport Ave & Wrightwood Ave,TA1307000113,Logan Blvd & Elston Ave,TA1308000031,41.92877283333333,-87.66386816666666,41.929465,-87.684158,member
15F1799459D6FA7A,classic_bike,2023-02-01 17:32:05,2023-02-01 17:37:41,Broadway & Wilson Ave,13074,Clarendon Ave & Junior Ter,13389,41.965221,-87.658139,41.961004,-87.649603,member
F4F4EC4496290FE9,electric_bike,2023-02-07 17:27:39,2023-02-07 17:33:38,,,St Louis Ave & Norman Bobbins Ave,385,41.79,-87.71,41.79,-87.71,casual
7090CB79E3878261,classic_bike,2023-02-28 21:01:53,2023-02-28 21:09:06,Rush St & Cedar St,KA1504000133,Franklin St & Illinois St,RN-,41.90230870122,-87.627690528,41.89102331025185,-87.63547986745834,member
DD69F24C05EE7C22,classic_bike,2023-02-23 08:14:47,2023-02-23 08:26:29,Clinton St & Madison St,TA1305000032,Racine Ave & Congress Pkwy,TA1306000025,41.882751965685614,-87.64119029045105,41.87464,-87.65703,member
6177E3981C1E4EB1,electric_bike,2023-02-28 08:03:18,2023-02-28 08:06:33,,,Kedzie Ave & Milwaukee Ave,13085,41.93,-87.7,41.929567,-87.707857,member
C975FECD13489380,electric_bike,2023-02-03 16:16:19,2023-02-03 16:22:44,Larrabee St & Webster Ave,13193,Dayton St & North Ave,13058,41.92181766666667,-87.64401133333334,41.9105780349,-87.6494219288,casual
32FB7C06591E3970,classic_bike,2023-02-21 00:25:34,2023-02-21 00:28:59,Racine Ave & Fullerton Ave,TA1306000026,Sheffield Ave & Wrightwood Ave,TA1309000023,41.925566,-87.658416,41.928712,-87.653833,member
71968F76EB120244,classic_bike,2023-02-03 04:47:22,2023-02-03 04:53:58,Orleans St & Chestnut St (NEXT Apts),620,St. Clair St & Erie St,13016,41.898203,-87.637536,41.89434513742426,-87.62279838323593,member
E0A943D04EF03F53,classic_bike,2023-02-06 07:37:25,2023-02-06 07:40:51,LaSalle St & Jackson Blvd,TA1309000004,Clark St & Randolph St,TA1305000030,41.878166,-87.631929,41.884576228,-87.63188991,casual
2FF64E58F96E5377,electric_bike,2023-02-28 12:09:40,2023-02-28 12:23:54,Canal St & Jackson Blvd,13138,Canal St & Jackson Blvd,13138,41.876939297,-87.638929129,41.877245,-87.639366,casual
5AC6C55B2ACA3BEF,electric_bike,2023-02-02 08:42:46,2023-02-02 08:45:04,Ashland Ave & Division St,13061,Ashland Ave & Augusta Blvd,13248,41.9034635,-87.6680015,41.899643,-87.6677,member
C23C533DAFEE153A,classic_bike,2023-02-11 13:15:40,2023-02-11 13:15:57,Wells St & Evergreen Ave,TA1308000049,Wells St & Evergreen Ave,TA1308000049,41.906724,-87.63483,41.906724,-87.63483,casual
8295A6296E29C6B5,classic_bike,2023-02-12 17:26:31,2023-02-12 17:47:05,Clybourn Ave & Division St,TA1307000115,Damen Ave & Clybourn Ave,13271,41.904613,-87.640552,41.931931,-87.677856,member
2E211021C50BC1D7,electric_bike,2023-02-19 08:25:35,2023-02-19 08:40:35,Wilton Ave & Diversey Pkwy,TA1306000014,Kedzie Ave & Milwaukee Ave,13085,41.932500362,-87.652786136,41.929567,-87.707857,member
FCB1B05B5255A239,electric_bike,2023-02-17 08:16:48,2023-02-17 08:19:42,Calumet Ave & 33rd St,13217,State St & 33rd St,13216,41.834811807,-87.61790514,41.834734,-87.625813,member
2190555D52DBDBF7,classic_bike,2023-02-28 15:20:44,2023-02-28 15:30:47,Michigan Ave & Madison St,13036,Wabash Ave & Roosevelt Rd,TA1305000002,41.882134,-87.625125,41.867227,-87.625961,member
D262442EA637C5C3,electric_bike,2023-02-22 08:31:09,2023-02-22 08:38:23,Canal St & Jackson Blvd,13138,Michigan Ave & Washington St,13001,41.877113938,-87.63872087,41.8839840647265,-87.6246839761734,member
BD6FCC12EFDEB32D,classic_bike,2023-02-28 05:39:51,2023-03-01 06:39:45,Clark St & Ida B Wells Dr,TA1305000009,,,41.8759326655,-87.6305845355,,,casual
BCDB9E5F06BBB653,electric_bike,2023-02-20 16:01:54,2023-02-20 16:08:24,Wilton Ave & Belmont Ave,TA1307000134,,,41.940173,-87.6529695,41.94,-87.64,member
694C273ACC712531,classic_bike,2023-02-01 13:25:48,2023-02-01 13:29:16,Racine Ave & Randolph St,13155,Green St & Randolph St*,chargingstx3,41.884069,-87.656853,41.883601657275165,-87.64862671494483,member
E6DCDB01E603C42F,electric_bike,2023-02-02 12:39:44,2023-02-02 12:46:49,Damen Ave & Leland Ave,TA1307000158,Clark St & Bryn Mawr Ave,KA1504000151,41.967089415,-87.67906487,41.983593,-87.669154,member
14F8276E2DC65DAE,electric_bike,2023-02-21 16:07:51,2023-02-21 16:17:45,LaSalle St & Adams St,KA1503000034,,,41.879770637,-87.631759882,41.89,-87.64,member
70002D9C15CAFED5,electric_bike,2023-02-04 09:35:17,2023-02-04 09:49:55,Southport Ave & Belmont Ave,13229,California Ave & Francis Pl (Temp),13259,41.939425707,-87.663816333,41.91849115368695,-87.69742280244827,member
40E08BD49A962280,electric_bike,2023-02-17 16:06:55,2023-02-17 16:13:46,Daley Center Plaza,TA1306000010,,,41.884189963,-87.630133986,41.89,-87.62,member
2731AFAA639EF70F,electric_bike,2023-02-08 07:50:27,2023-02-08 08:03:40,Racine Ave & 18th St,13164,Dearborn St & Monroe St,TA1305000006,41.85821116,-87.656370044,41.881319815,-87.6295209193,member
6F1C5308D9158A13,classic_bike,2023-02-06 14:16:23,2023-02-06 14:25:36,Sedgwick St & Huron St,TA1307000062,State St & Chicago Ave,21544,41.894666,-87.638437,41.89661720040753,-87.62857854366302,member
2FFCC1012034C461,electric_bike,2023-02-26 09:35:58,2023-02-26 09:59:41,Financial Pl & Ida B Wells Dr,SL-010,,,41.874942422,-87.633169651,41.9,-87.62,member
DB131EE11E9739FA,electric_bike,2023-02-01 08:41:32,2023-02-01 08:46:37,,,Canal St & Madison St,13341,41.89,-87.65,41.882409,-87.639767,member
E3DE11946AB2A054,electric_bike,2023-02-10 01:29:01,2023-02-10 01:37:56,,,Franklin St & Illinois St,RN-,41.91,-87.63,41.89102331025185,-87.63547986745834,casual
D4FD6EB945D12BA1,electric_bike,2023-02-27 16:12:14,2023-02-27 16:19:49,State St & Kinzie St,13050,Clinton St & Madison St,TA1305000032,41.889196992,-87.627091527,41.882751965685614,-87.64119029045105,member
6777B807E678EF5A,electric_bike,2023-02-27 15:01:58,2023-02-27 15:07:34,,,,,41.92,-87.68,41.91,-87.68,member
CEFAD606592037B4,electric_bike,2023-02-13 16:17:44,2023-02-13 16:26:45,Canal St & Madison St,13341,Wells St & Elm St,KA1504000135,41.882003,-87.64017083333333,41.903222,-87.634324,member
2F5D6CE0D8ECB50A,classic_bike,2023-02-06 06:16:54,2023-02-06 06:18:40,Canal St & Madison St,13341,Wacker Dr & Washington St,KA1503000072,41.882409,-87.639767,41.88314336439022,-87.63724207878113,member
EEDCCD2E0AEDDB24,classic_bike,2023-02-07 16:02:09,2023-02-07 16:13:58,Michigan Ave & Washington St,13001,Clinton St & Washington Blvd,WL-012,41.8839840647265,-87.6246839761734,41.88338,-87.64117,member
97040820F678BF1A,electric_bike,2023-02-18 06:41:54,2023-02-18 06:50:39,Damen Ave & Melrose Ave,13143,Ashland Ave & Grace St,13319,41.940573335,-87.678584814,41.950687,-87.6687,member
2AC6CBE26FFFF4FE,classic_bike,2023-02-24 12:17:25,2023-02-24 12:19:38,Broadway & Sheridan Rd,13323,Broadway & Waveland Ave,13325,41.952833,-87.649993,41.949074,-87.648636,member
5C763D3B2F3E90B4,classic_bike,2023-02-07 17:45:47,2023-02-07 17:58:34,Wells St & Concord Ln,TA1308000050,Stockton Dr & Wrightwood Ave,13276,41.912133,-87.634656,41.93132,-87.638742,member
AF4F51919C7D2D4D,electric_bike,2023-02-08 18:22:02,2023-02-08 18:29:21,,,Long & Irving Park,398,41.95,-87.74,41.95,-87.76,casual
9088CDD19E17C4AD,classic_bike,2023-02-14 00:21:55,2023-02-14 00:27:17,Clark St & Montrose Ave,KA1503000022,Ravenswood Ave & Lawrence Ave,TA1309000066,41.961588,-87.666036,41.96909,-87.674237,member
52C94AE6D9598432,electric_bike,2023-02-17 05:49:39,2023-02-17 06:03:00,Sayre & Diversey,352,Harlem & Irving Park,326,41.93,-87.8,41.95,-87.81,casual
F6600ECBF938FED9,electric_bike,2023-02-19 17:59:05,2023-02-19 18:04:11,Clark St & Lincoln Ave,13179,Clark St & Drummond Pl,TA1307000142,41.915743232,-87.634602547,41.931248,-87.644336,member
558C6DF9552B72A9,classic_bike,2023-02-07 17:32:52,2023-02-07 17:42:14,Broadway & Waveland Ave,13325,Clarendon Ave & Junior Ter,13389,41.949074,-87.648636,41.961004,-87.649603,casual
6747E899A65ADF70,classic_bike,2023-02-20 13:29:52,2023-02-20 13:33:49,Sheffield Ave & Waveland Ave,TA1307000126,Southport Ave & Waveland Ave,13235,41.949399,-87.654529,41.94815,-87.66394,member
D9F354E76E099314,electric_bike,2023-02-26 13:43:58,2023-02-26 13:56:44,Racine Ave & Fullerton Ave,TA1306000026,,,41.925575614,-87.658401012,41.93,-87.69,member
E6551265963D3210,classic_bike,2023-02-22 00:55:37,2023-02-22 01:01:32,University Ave & 57th St,KA1503000071,Ellis Ave & 60th St,KA1503000014,41.791478,-87.599861,41.78509714636,-87.6010727606,member
35C40992F196F175,classic_bike,2023-02-07 03:01:26,2023-02-07 03:07:24,Clark St & Newport St,632,Broadway & Barry Ave,13137,41.94454,-87.654678,41.93758231600629,-87.6440978050232,member
18F4D1150C3817C0,classic_bike,2023-02-11 11:23:01,2023-02-11 11:36:07,Southport Ave & Clybourn Ave,TA1309000030,Wells St & Concord Ln,TA1308000050,41.920771,-87.663712,41.912133,-87.634656,casual
5D1EAFE9E93244F0,electric_bike,2023-02-15 11:34:19,2023-02-15 11:38:56,Franklin St & Jackson Blvd,TA1305000025,Peoria St & Jackson Blvd,13158,41.87785933333333,-87.63554116666667,41.8776415962753,-87.64961779117584,casual
1148253B044D1085,electric_bike,2023-02-06 16:05:17,2023-02-06 16:12:31,Mies van der Rohe Way & Chicago Ave,13338,LaSalle St & Jackson Blvd,TA1309000004,41.897038341,-87.621735215,41.878166,-87.631929,member
0450FDBE4816D87E,classic_bike,2023-02-21 11:29:52,2023-02-21 11:37:14,Ashland Ave & Grace St,13319,Racine Ave & Belmont Ave,TA1308000019,41.950687,-87.6687,41.939743,-87.658865,member
37C4BAAE17F61183,classic_bike,2023-02-14 00:17:55,2023-02-14 00:36:15,Avers Ave & Belmont Ave,15640,Campbell Ave & Fullerton Ave,15648,41.939408,-87.723574,41.92463247165,-87.6893070063,member
17980C610F6734B3,classic_bike,2023-02-25 16:23:23,2023-02-25 16:34:56,Federal St & Polk St,SL-008,Franklin St & Illinois St,RN-,41.87207763285,-87.6295437729,41.89102331025185,-87.63547986745834,member
D76CF5A9D1086677,classic_bike,2023-02-10 13:04:09,2023-02-10 13:07:07,Dearborn St & Erie St,13045,St. Clair St & Erie St,13016,41.893992,-87.629318,41.89434513742426,-87.62279838323593,member
FF83E4302FB17A48,classic_bike,2023-02-10 18:18:22,2023-02-10 18:23:27,Mies van der Rohe Way & Chestnut St,15529,Rush St & Cedar St,KA1504000133,41.8985866514,-87.6219152258,41.90230870122,-87.627690528,member
754DEF6ED2672A4C,classic_bike,2023-02-02 20:37:42,2023-02-02 20:43:26,Morgan St & 18th St,13163,Paulina St & 18th St,TA1307000159,41.858086,-87.651073,41.857901,-87.668745,member
E60322AB9625C352,classic_bike,2023-02-15 07:37:02,2023-02-15 07:52:36,Jeffery Blvd & 76th St,KA1503000028,Cottage Grove Ave & 71st St,KA1503000003,41.75712006802,-87.5758393587,41.76571903697,-87.604959713,member
C01A58DFB9B21635,classic_bike,2023-02-28 14:08:58,2023-02-28 14:23:18,Pine Grove Ave & Waveland Ave,TA1307000150,Pine Grove Ave & Waveland Ave,TA1307000150,41.94947274088333,-87.64645278453827,41.94947274088333,-87.64645278453827,member
B4EADB2483BB1C50,classic_bike,2023-02-09 08:59:29,2023-02-09 09:02:18,Broadway & Barry Ave,13137,Clark St & Drummond Pl,TA1307000142,41.93758231600629,-87.6440978050232,41.931248,-87.644336,member
57179A551A0B40AC,electric_bike,2023-02-19 17:45:31,2023-02-19 18:16:31,,,LaSalle Dr & Huron St,KP1705001026,41.98,-87.66,41.894877,-87.632326,member
19E8229351183C18,classic_bike,2023-02-07 17:45:47,2023-02-07 18:00:14,Franklin St & Jackson Blvd,TA1305000025,Morgan Ave & 14th Pl,TA1306000002,41.8777079559,-87.6353211408,41.862378,-87.651062,member
530EA7E9872F75AF,electric_bike,2023-02-25 15:51:41,2023-02-25 15:53:00,,,Clark St & Elm St,TA1307000039,41.9,-87.63,41.902973,-87.63128,member
C2203DAE689B0FC3,electric_bike,2023-02-12 09:49:34,2023-02-12 09:52:23,Clark St & Montrose Ave,KA1503000022,Southport Ave & Irving Park Rd,TA1309000043,41.96157516666667,-87.66618366666667,41.954177,-87.664358,casual
7E3FC6F24709318B,classic_bike,2023-02-08 16:09:54,2023-02-08 16:27:21,Wood St & Milwaukee Ave,13221,State St & Kinzie St,13050,41.907655,-87.672552,41.88937546663168,-87.62707650661469,casual
CBACA8C98807EDFA,classic_bike,2023-02-03 15:44:52,2023-02-03 15:54:57,Sheffield Ave & Waveland Ave,TA1307000126,Lincoln Ave & Fullerton Ave,TA1309000058,41.949399,-87.654529,41.924161029067626,-87.64638036489487,member
F687BAC8F8B960AE,classic_bike,2023-02-12 12:44:53,2023-02-13 13:44:47,Ashland Ave & Blackhawk St,13224,,,41.907066,-87.667252,,,casual
2B0A17E7B4EBD721,electric_bike,2023-02-28 07:53:17,2023-02-28 07:58:33,,,Wells St & Huron St,TA1306000012,41.9,-87.63,41.894722,-87.634362,casual
0AE1FF9629E4D992,electric_bike,2023-02-07 08:45:08,2023-02-07 08:48:58,,,Avondale Ave & Irving Park Rd,15624,41.95,-87.72,41.953393,-87.732002,member
9D98215DF3294192,electric_bike,2023-02-23 12:20:30,2023-02-23 12:23:33,Ellis Ave & 60th St,KA1503000014,,,41.78516333333334,-87.6011245,41.79,-87.6,member
475142E8281F827A,classic_bike,2023-02-08 17:19:41,2023-02-08 17:23:48,Milwaukee Ave & Grand Ave,13033,Desplaines St & Randolph St,15535,41.891578,-87.648384,41.88461618962,-87.6445705849,member
6C52A64AFA515A89,electric_bike,2023-02-14 15:03:49,2023-02-14 15:14:26,Michigan Ave & Washington St,13001,Daley Center Plaza,TA1306000010,41.883745074,-87.624294877,41.884241,-87.629634,casual
7659E42E7B74F08D,classic_bike,2023-02-06 16:13:42,2023-02-06 16:21:57,Broadway & Wilson Ave,13074,Paulina St & Montrose Ave,TA1309000021,41.965221,-87.658139,41.961507,-87.671387,member
2FD3372D0F00408A,classic_bike,2023-02-21 08:34:37,2023-02-21 08:43:50,Federal St & Polk St,SL-008,Michigan Ave & Washington St,13001,41.87207763285,-87.6295437729,41.8839840647265,-87.6246839761734,member
AFDF59CA4F685C07,electric_bike,2023-02-14 15:53:54,2023-02-14 16:09:41,Canal St & Madison St,13341,Southport Ave & Wrightwood Ave,TA1307000113,41.881953716,-87.640063405,41.928773,-87.663913,member
B38DEDB8F53A2E2A,classic_bike,2023-02-24 18:55:58,2023-02-24 18:59:31,Wilton Ave & Diversey Pkwy,TA1306000014,Halsted St & Wrightwood Ave,TA1309000061,41.932418,-87.652705,41.929143,-87.649077,member
3B7574EE499FE211,classic_bike,2023-02-13 12:12:35,2023-02-13 12:24:09,Blackstone Ave & Hyde Park Blvd,13398,University Ave & 57th St,KA1503000071,41.802562,-87.590368,41.791478,-87.599861,member
DBA6E4E6EAD4C9D9,electric_bike,2023-02-06 08:49:56,2023-02-06 09:11:09,Broadway & Belmont Ave,13277,Streeter Dr & Grand Ave,13022,41.94010566666667,-87.64546533333333,41.892278,-87.612043,member
31967C047216C13F,classic_bike,2023-02-12 12:08:13,2023-02-12 12:10:51,Ellis Ave & 53rd St,KA1503000052,Ellis Ave & 55th St,KA1504000076,41.79933626261,-87.6009581145,41.79430062054,-87.6014497734,member
B7AF4DCC878A7A4A,electric_bike,2023-02-15 16:23:25,2023-02-15 16:29:58,Wabash Ave & Wacker Pl,TA1307000131,Clinton St & Washington Blvd,WL-012,41.886827588,-87.625987649,41.88338,-87.64117,member
5C0085EAEAFBD03F,classic_bike,2023-02-19 16:33:16,2023-02-19 16:41:03,Pine Grove Ave & Irving Park Rd,TA1308000022,Broadway & Belmont Ave,13277,41.954383,-87.648043,41.940106,-87.645451,member
3DE4387C5B431818,classic_bike,2023-02-15 16:51:25,2023-02-15 16:54:51,Mies van der Rohe Way & Chestnut St,15529,Rush St & Cedar St,KA1504000133,41.8985866514,-87.6219152258,41.90230870122,-87.627690528,member
2C1CCC4CF7E56DD2,classic_bike,2023-02-09 13:13:15,2023-02-09 13:15:46,Sheffield Ave & Fullerton Ave,TA1306000016,Wilton Ave & Diversey Pkwy,TA1306000014,41.9256018819,-87.6537080423,41.932418,-87.652705,member
7905FF76D8761E24,classic_bike,2023-02-13 08:37:50,2023-02-13 08:47:22,Southport Ave & Wellington Ave,TA1307000006,Sheffield Ave & Wellington Ave,TA1307000052,41.93577461766458,-87.66360014677048,41.9362534831413,-87.65266209840775,member
010812B9C3413240,classic_bike,2023-02-20 14:10:36,2023-02-20 14:49:05,Streeter Dr & Grand Ave,13022,Burnham Harbor,15545,41.892278,-87.612043,41.85741178707404,-87.61379152536392,casual
7FB46F35C5DE4DD7,electric_bike,2023-02-19 06:39:40,2023-02-19 06:42:38,Winthrop Ave & Lawrence Ave,TA1308000021,Broadway & Argyle St,13108,41.968830585,-87.657616258,41.973815,-87.65966,casual
BC058374F66E68B8,electric_bike,2023-02-14 15:50:53,2023-02-14 15:53:01,State St & 35th St,TA1307000129,State St & 33rd St,13216,41.831067204,-87.626827002,41.834734,-87.625813,member
4BE99ECD67D55FAC,electric_bike,2023-02-13 17:28:21,2023-02-13 17:35:13,Wells St & Huron St,TA1306000012,Canal St & Adams St,13011,41.894706964,-87.634408593,41.879255,-87.639904,member
15581770C7BB7BAB,classic_bike,2023-02-12 12:15:37,2023-02-12 12:30:47,Clark St & Wrightwood Ave,TA1305000014,Sheridan Rd & Montrose Ave,TA1307000107,41.929546,-87.643118,41.96167,-87.65464,member
D9DAD3641A3B67E5,electric_bike,2023-02-09 11:18:45,2023-02-09 11:24:39,,,,,41.89,-87.65,41.9,-87.67,member
0BF4A5B560A34565,electric_bike,2023-02-07 12:41:03,2023-02-07 12:44:05,,,,,41.87,-87.63,41.87,-87.63,casual
5ABFC6CFA663C0FE,electric_bike,2023-02-21 12:27:17,2023-02-21 12:31:30,Wilton Ave & Diversey Pkwy,TA1306000014,,,41.93249733333333,-87.65260983333333,41.92,-87.65,member
D5CEA1E6599BBA10,electric_bike,2023-02-08 06:37:26,2023-02-08 06:43:32,Larrabee St & Webster Ave,13193,Larrabee St & Kingsbury St,TA1306000009,41.92185092,-87.644071937,41.897764,-87.642884,member
87A4CE6824EFEDFE,classic_bike,2023-02-05 01:36:52,2023-02-05 01:39:48,Sheridan Rd & Montrose Ave,TA1307000107,Clarendon Ave & Gordon Ter,13379,41.96167,-87.65464,41.95786652415174,-87.64950513839722,member
033AAE3C0F3B16CC,electric_bike,2023-02-11 16:09:49,2023-02-11 16:16:33,,,,,41.91,-87.67,41.92,-87.67,member
53044C173282CF58,classic_bike,2023-02-27 17:33:32,2023-02-27 17:39:26,Loomis St & Lexington St,13332,Aberdeen St & Jackson Blvd,13157,41.87222873224032,-87.66136385500431,41.87772613,-87.65478743,member
3218C7497EF9A96F,classic_bike,2023-02-14 09:07:53,2023-02-14 09:10:51,Wolcott Ave & Fargo Ave,519,Paulina St & Howard St,515,42.016977,-87.677725,42.019159,-87.673573,casual
391267B2D1495FA0,classic_bike,2023-02-04 10:35:15,2023-02-04 10:47:57,State St & 35th St,TA1307000129,Shields Ave & 28th Pl,15443,41.8310363140161,-87.62679755687714,41.842733,-87.635491,member
D4EF9C3718ADB9E0,electric_bike,2023-02-02 16:37:29,2023-02-02 16:42:55,Dearborn Pkwy & Delaware Pl,TA1307000128,Clybourn Ave & Division St,TA1307000115,41.898900986,-87.629951715,41.904613,-87.640552,member
A72D552FBDC5729B,classic_bike,2023-02-18 22:21:26,2023-02-18 22:26:41,Harper Ave & 59th St,KA1503000070,University Ave & 57th St,KA1503000071,41.78794281287,-87.5883151702,41.791478,-87.599861,casual
90FC85D05A8311F4,classic_bike,2023-02-15 09:13:16,2023-02-15 09:18:00,Clark St & Randolph St,TA1305000030,Rush St & Hubbard St,KA1503000044,41.884576228,-87.63188991,41.890173,-87.626185,member
0F247EAECF396C79,electric_bike,2023-02-14 17:20:45,2023-02-14 17:42:31,,,Seeley Ave & Roscoe St,13144,41.89,-87.65,41.943403,-87.679618,casual
142CA7721A4DA053,classic_bike,2023-02-19 16:56:46,2023-02-19 17:10:54,Broadway & Wilson Ave,13074,Broadway & Granville Ave,15571,41.965221,-87.658139,41.9947796884,-87.6602845349,member
5392D26DD89ABC81,electric_bike,2023-02-28 05:02:13,2023-02-28 05:13:21,Woodlawn & 103rd - Olive Harvey Vaccination Site,20133,,,41.71,-87.59,41.72,-87.62,casual
33EE5E8D0CED97F8,classic_bike,2023-02-06 22:15:49,2023-02-06 22:23:09,Clark St & Newport St,632,Broadway & Belmont Ave,13277,41.94454,-87.654678,41.940106,-87.645451,member
D325E8E4D74899E2,electric_bike,2023-02-20 18:06:14,2023-02-20 18:10:22,Damen Ave & Division St,13136,Damen Ave & Pierce Ave,TA1305000041,41.903254867,-87.678468108,41.9093960065,-87.6776919292,member
DC78CD6F5C01F8D7,electric_bike,2023-02-20 13:47:47,2023-02-20 13:54:58,Wabash Ave & 9th St,TA1309000010,Wabash Ave & Cermak Rd,TA1305000001,41.870306492,-87.625407577,41.852619,-87.626488,member
AD41D5974CC49D05,electric_bike,2023-02-28 11:25:44,2023-02-28 11:30:32,Wabash Ave & Adams St,KA1503000015,Wabash Ave & 9th St,TA1309000010,41.879314303,-87.625788212,41.870769,-87.625734,member
B0A498808975F125,electric_bike,2023-02-21 07:38:49,2023-02-21 07:49:14,,,Michigan Ave & Lake St,TA1305000011,41.9,-87.65,41.886022,-87.624398,member
C9CAAA46DA7AB2A3,electric_bike,2023-02-28 07:24:04,2023-02-28 07:38:59,,,,,41.97,-87.66,41.91,-87.65,member
0DC7A7E25F490CF1,electric_bike,2023-02-18 16:32:44,2023-02-18 17:35:41,Indiana Ave & Roosevelt Rd,SL-005,Streeter Dr & Grand Ave,13022,41.867894292,-87.623097062,41.892278,-87.612043,casual
C5F127FD152EF037,electric_bike,2023-02-19 08:27:07,2023-02-19 08:29:38,Stetson Ave & South Water St,TA1308000029,,,41.886483192,-87.62176156,41.89,-87.63,member
0E1157244FD87668,classic_bike,2023-02-05 13:02:32,2023-02-05 13:06:46,Emerald Ave & 31st St,TA1309000055,Shields Ave & 31st St,KA1503000038,41.838198,-87.645143,41.838464,-87.635406,casual
6C5F54F8D70320B9,electric_bike,2023-02-17 06:22:14,2023-02-17 06:28:45,MLK Jr Dr & 29th St,TA1307000139,State St & 33rd St,13216,41.842075825,-87.617059231,41.834734,-87.625813,member
7B88AF72DE1F7770,classic_bike,2023-02-26 12:50:25,2023-02-26 12:57:22,Dearborn St & Erie St,13045,Kingsbury St & Kinzie St,KA1503000043,41.893992,-87.629318,41.88917683258,-87.6385057718,member
1D27204770340A8D,electric_bike,2023-02-05 17:55:40,2023-02-05 18:05:39,Dearborn Pkwy & Delaware Pl,TA1307000128,Lincoln Ave & Fullerton Ave,TA1309000058,41.898991823,-87.629977703,41.924161029067626,-87.64638036489487,member
3F49C4160C1F9EF3,electric_bike,2023-02-13 18:08:19,2023-02-13 18:29:09,Halsted St & Roscoe St,TA1309000025,Milwaukee Ave & Grand Ave,13033,41.943687439,-87.648895383,41.891578,-87.648384,member
FD16B0C426F70E18,electric_bike,2023-02-20 14:31:40,2023-02-20 14:39:44,,,Clark St & 9th St (AMLI),SL-009,41.88,-87.65,41.870816,-87.631246,casual
5BBA0F1DD4B92C82,classic_bike,2023-02-19 11:16:38,2023-02-19 11:28:53,Leavitt St & Chicago Ave,18058,Wood St & Milwaukee Ave,13221,41.895501,-87.682017,41.907655,-87.672552,member
B496DB24EA3380DC,electric_bike,2023-02-06 21:07:49,2023-02-06 21:23:01,,,Throop St & Taylor St,13139,41.87,-87.65,41.868968,-87.659141,member
9CEA8F6823C1FDEF,classic_bike,2023-02-22 07:37:03,2023-02-22 07:42:57,May St & Taylor St,13160,Racine Ave & 15th St,13304,41.8694821,-87.6554864,41.861267,-87.656625,member
947AD491341F5D2B,electric_bike,2023-02-11 16:50:32,2023-02-11 17:05:08,Avers Ave & Belmont Ave,15640,,,41.939453602,-87.723586559,41.93,-87.7,casual
3C4A90C6AE69749F,electric_bike,2023-02-09 09:01:58,2023-02-09 09:06:10,Broadway & Sheridan Rd,13323,Broadway & Barry Ave,13137,41.952813166666665,-87.65001266666667,41.93758231600629,-87.6440978050232,member
FBDBF469BDAC1E9A,classic_bike,2023-02-14 17:33:47,2023-02-14 17:36:52,Ashland Ave & Lake St,13073,Wood St & Hubbard St,13432,41.88592,-87.66717,41.889899,-87.671473,member
987AB845E5DB401A,classic_bike,2023-02-19 14:27:46,2023-02-19 14:33:44,Franklin St & Illinois St,RN-,St. Clair St & Erie St,13016,41.89102331025185,-87.63547986745834,41.89434513742426,-87.62279838323593,casual
2E251D026647B550,electric_bike,2023-02-07 10:49:43,2023-02-07 10:59:43,Larrabee St & Kingsbury St,TA1306000009,,,41.897600532,-87.642919898,41.9,-87.69,member
D5575E9223A59DE2,electric_bike,2023-02-08 17:13:22,2023-02-08 17:20:00,Canal St & Adams St,13011,Franklin St & Illinois St,RN-,41.879260778,-87.639895201,41.89102331025185,-87.63547986745834,member
5D817EC0125F19E1,classic_bike,2023-02-28 09:11:36,2023-02-28 09:26:33,Wood St & Chicago Ave,637,Clinton St & Jackson Blvd,638,41.895634,-87.672069,41.87831661183069,-87.64098107814789,member
1EFE757B5793636F,classic_bike,2023-02-05 13:47:44,2023-02-05 13:49:43,Kedzie Ave & Palmer Ct,13292,Kedzie Ave & Palmer Ct,13292,41.921525,-87.707322,41.921525,-87.707322,member
8713C54B4EEC8327,electric_bike,2023-02-22 00:02:49,2023-02-22 00:16:03,Federal St & Polk St,SL-008,Damen Ave & Cullerton St,13089,41.872038484,-87.629685163,41.854966518753926,-87.67569959163664,member
688C7141474B27C8,electric_bike,2023-02-19 16:22:52,2023-02-19 16:33:54,Wells St & Huron St,TA1306000012,Canal St & Taylor St,15550,41.89479053,-87.63434577,41.870257,-87.639474,member
EE14646D5E3B8C8A,electric_bike,2023-02-17 19:00:28,2023-02-17 19:03:00,Canal St & Taylor St,15550,Halsted St & Polk St,TA1307000121,41.870125175,-87.639493942,41.87184,-87.64664,member
17307681A9D886CE,electric_bike,2023-02-19 17:43:14,2023-02-19 18:13:28,Michigan Ave & Oak St,13042,Cottage Grove Ave & 43rd St,TA1308000023,41.900696158,-87.623592257,41.816499,-87.606582,member
020D38E1FE27B497,electric_bike,2023-02-27 10:15:11,2023-02-27 10:25:06,Western Ave & Division St,13241,,,41.902920961,-87.687398672,41.88,-87.68,casual
EA7C90AC21190F72,electric_bike,2023-02-27 16:44:25,2023-02-27 17:17:54,Canal St & Taylor St,15550,Clark St & Montrose Ave,KA1503000022,41.87022266666666,-87.639462,41.961588,-87.666036,member
10E8842E232ACE60,classic_bike,2023-02-05 18:57:38,2023-02-05 19:10:43,Morgan St & 18th St,13163,Damen Ave & Cullerton St,13089,41.858086,-87.651073,41.854966518753926,-87.67569959163664,casual
341CFAD16A7542C6,classic_bike,2023-02-14 21:38:21,2023-02-14 21:43:16,University Ave & 57th St,KA1503000071,Ellis Ave & 60th St,KA1503000014,41.791478,-87.599861,41.78509714636,-87.6010727606,member
3468D0C6E8555E92,classic_bike,2023-02-24 19:42:37,2023-02-24 19:53:36,Elizabeth St & Fulton St,13197,Ogden Ave & Race Ave,13194,41.88671077318443,-87.65965729951859,41.891795,-87.658751,casual
F4747A0ED63CC3B7,electric_bike,2023-02-05 12:20:08,2023-02-05 12:38:23,,,Michigan Ave & 8th St,623,41.9,-87.62,41.872773,-87.623981,casual
D695C55E47E727E3,classic_bike,2023-02-12 14:56:42,2023-02-12 15:03:41,State St & Chicago Ave,21544,Wells St & Hubbard St,TA1307000151,41.89661720040753,-87.62857854366302,41.889906,-87.634266,member
AE3FEA1C213E3F55,classic_bike,2023-02-10 14:41:36,2023-02-10 14:43:58,Clark St & Grace St,TA1307000127,Sheffield Ave & Waveland Ave,TA1307000126,41.95078,-87.659172,41.949399,-87.654529,member
EC847061CB93CF6E,classic_bike,2023-02-14 18:14:32,2023-02-14 18:22:12,Fairbanks Ct & Grand Ave,TA1305000003,Wells St & Huron St,TA1306000012,41.89184737210993,-87.62058019638062,41.894722,-87.634362,member
BE93904F37BBAF12,classic_bike,2023-02-26 15:28:31,2023-02-26 15:37:19,Southport Ave & Irving Park Rd,TA1309000043,Southport Ave & Irving Park Rd,TA1309000043,41.954177,-87.664358,41.954177,-87.664358,casual
9C8D2B0C31B0BE78,classic_bike,2023-02-02 05:57:15,2023-02-02 06:01:55,Wells St & Polk St,SL-011,Canal St & Jackson Blvd,13138,41.87273154226308,-87.63351649045944,41.877245,-87.639366,member
F771F31A2A2D9BC9,classic_bike,2023-02-20 09:53:00,2023-02-20 10:01:41,California Ave & Milwaukee Ave,13084,Winchester Ave & Elston Ave,KA1504000140,41.922695,-87.697153,41.92409085038,-87.6764600747,member
A3951ADC205D55CC,electric_bike,2023-02-08 16:19:19,2023-02-08 16:25:15,Clinton St & Jackson Blvd,638,Aberdeen St & Monroe St,13156,41.877885,-87.64042116666667,41.880419,-87.655519,member
6C88669F8698E07C,classic_bike,2023-02-28 08:36:17,2023-02-28 08:46:44,Federal St & Polk St,SL-008,Wacker Dr & Washington St,KA1503000072,41.87207763285,-87.6295437729,41.88314336439022,-87.63724207878113,member
0146D3BF1E929759,electric_bike,2023-02-23 18:41:13,2023-02-23 18:45:20,Southport Ave & Wellington Ave,TA1307000006,Lincoln Ave & Belmont Ave (Temp),TA1309000042,41.935698867,-87.663578868,41.93953161982257,-87.6711143553257,member
4C0E0E465B2AC84B,classic_bike,2023-02-21 10:37:45,2023-02-21 10:47:41,Sheffield Ave & Kingsbury St,13154,Greenview Ave & Fullerton Ave,TA1307000001,41.910522,-87.653106,41.92533,-87.6658,casual
93FEDD70E67069D0,classic_bike,2023-02-18 14:17:20,2023-02-18 14:25:39,State St & Chicago Ave,21544,Wells St & Elm St,KA1504000135,41.89661720040753,-87.62857854366302,41.903222,-87.634324,member
DBBBD883E852A913,electric_bike,2023-02-25 13:35:35,2023-02-25 13:41:37,Damen Ave & Chicago Ave,13132,,,41.895692587,-87.677116752,41.9,-87.67,member
285B5003D6291C87,electric_bike,2023-02-28 10:48:14,2023-02-28 10:59:04,,,,,41.93,-87.64,41.95,-87.66,member
D5C06E128AE6E050,classic_bike,2023-02-08 17:41:56,2023-02-08 17:49:04,St. Clair St & Erie St,13016,Franklin St & Illinois St,RN-,41.89434513742426,-87.62279838323593,41.89102331025185,-87.63547986745834,member
159E3BA4A17D9E75,classic_bike,2023-02-08 08:01:15,2023-02-08 08:09:57,LaSalle St & Jackson Blvd,TA1309000004,Dearborn St & Erie St,13045,41.878166,-87.631929,41.893992,-87.629318,member
DEEF7683FDF0CF66,electric_bike,2023-02-19 10:46:21,2023-02-19 10:49:42,Broadway & Wilson Ave,13074,Sheridan Rd & Lawrence Ave,TA1309000041,41.965174556,-87.658334017,41.969517,-87.654691,member
42851391C3AB6216,classic_bike,2023-02-28 07:12:28,2023-02-28 07:17:28,Desplaines St & Kinzie St,TA1306000003,Canal St & Adams St,13011,41.888716036,-87.6444478533,41.879255,-87.639904,member
41087C93452855CB,classic_bike,2023-02-02 07:27:17,2023-02-02 07:39:25,Canal St & Adams St,13011,Noble St & Milwaukee Ave,13290,41.879255,-87.639904,41.90068,-87.6626,member
AD624CCAC40A959D,electric_bike,2023-02-11 18:10:14,2023-02-11 18:14:32,,,Loomis St & Lexington St,13332,41.87,-87.65,41.87222873224032,-87.66136385500431,casual
4CB6C3859745E4AD,classic_bike,2023-02-08 08:37:47,2023-02-08 08:57:54,Michigan Ave & 18th St,13150,Columbus Dr & Randolph St,13263,41.857813,-87.62455,41.884728,-87.619521,member
1ABE179DCB31993F,classic_bike,2023-02-16 17:08:39,2023-02-16 17:12:22,Peoria St & Jackson Blvd,13158,Sangamon St & Lake St,TA1306000015,41.8776415962753,-87.64961779117584,41.88577925240433,-87.65102460980414,member
3BFC7E71702DD914,classic_bike,2023-02-18 10:17:42,2023-02-18 10:22:11,Orleans St & Chestnut St (NEXT Apts),620,Sedgwick St & North Ave,TA1307000038,41.898203,-87.637536,41.911386,-87.638677,member
6FD4209B26132FA6,classic_bike,2023-02-04 13:50:18,2023-02-04 14:13:09,Halsted St & Willow St,TA1307000166,Sheridan Rd & Buena Ave,TA1309000027,41.913865,-87.648755,41.958494,-87.654966,member
150FBF92FA0018A6,classic_bike,2023-02-02 15:31:08,2023-02-02 15:33:01,Wells St & Hubbard St,TA1307000151,Kingsbury St & Kinzie St,KA1503000043,41.889906,-87.634266,41.88917683258,-87.6385057718,member
4A1F7D7BFB7D5CF8,classic_bike,2023-02-11 14:46:12,2023-02-11 15:21:59,Field Blvd & South Water St,15534,Adler Planetarium,13431,41.88634906269,-87.6175165471,41.866095,-87.607267,member
52802913D3410EEB,electric_bike,2023-02-21 14:34:01,2023-02-21 14:35:33,,,Orleans St & Merchandise Mart Plaza,TA1305000022,41.89,-87.64,41.888243,-87.63639,member
25B8045345BA3813,classic_bike,2023-02-28 20:22:49,2023-02-28 20:27:14,Cityfront Plaza Dr & Pioneer Ct,13427,Clark St & Lake St,KA1503000012,41.890573,-87.622072,41.88602082773,-87.6308760584,member
72CDBDB8325CC624,classic_bike,2023-02-04 17:54:28,2023-02-04 17:58:37,Ellis Ave & 60th St,KA1503000014,Ellis Ave & 55th St,KA1504000076,41.78509714636,-87.6010727606,41.79430062054,-87.6014497734,member
4981BABAC98B1FAE,classic_bike,2023-02-27 06:28:31,2023-02-27 06:37:57,Michigan Ave & Ida B Wells Dr,TA1305000010,Clinton St & Tilden St,13037,41.876243,-87.624426,41.875885,-87.640795,casual
9CC8A5256C1AEFF6,classic_bike,2023-02-08 17:28:28,2023-02-08 17:33:53,Dearborn St & Monroe St,TA1305000006,State St & Kinzie St,13050,41.881319815,-87.6295209193,41.88937546663168,-87.62707650661469,member
73E32AC8004D7F07,electric_bike,2023-02-05 18:08:10,2023-02-05 18:08:33,,,,,41.89,-87.67,41.89,-87.67,member
9CF563D2B47DD056,classic_bike,2023-02-24 13:46:19,2023-02-24 13:57:16,Racine Ave & Fullerton Ave,TA1306000026,Lincoln Park Conservatory,LP-,41.925566,-87.658416,41.92393131136619,-87.63582453131676,member
6F23147344AF89FF,electric_bike,2023-02-03 18:30:34,2023-02-03 18:36:19,MLK Jr Dr & Pershing Rd,13420,Cottage Grove Ave & 43rd St,TA1308000023,41.824507117,-87.616793513,41.816499,-87.606582,member
3F5CD0BCD734B1FC,classic_bike,2023-02-01 21:15:34,2023-02-01 21:19:28,Clark St & Winnemac Ave,TA1309000035,Clark St & Leland Ave,TA1309000014,41.97334764047304,-87.6678554713726,41.96708783918421,-87.66729086637497,casual
61ED78ABF2EEF81C,electric_bike,2023-02-13 11:55:28,2023-02-13 12:03:28,,,Lincoln Ave & Fullerton Ave,TA1309000058,41.95,-87.66,41.924161029067626,-87.64638036489487,member
ABD68EBDDACD690C,classic_bike,2023-02-15 20:30:59,2023-02-15 20:44:14,Wells St & Elm St,KA1504000135,Wilton Ave & Diversey Pkwy,TA1306000014,41.903222,-87.634324,41.932418,-87.652705,member
25A5C58DB56858CF,classic_bike,2023-02-18 13:25:12,2023-02-18 13:36:18,Aberdeen St & Randolph St,18062,Wells St & Huron St,TA1306000012,41.884114,-87.654264,41.894722,-87.634362,casual
845BA07ECE00DB1F,classic_bike,2023-02-28 11:04:20,2023-02-28 11:29:49,Streeter Dr & Grand Ave,13022,DuSable Lake Shore Dr & North Blvd,LF-005,41.892278,-87.612043,41.911722,-87.626804,member
B1AFCEF9B54BCFDF,classic_bike,2023-02-27 17:17:33,2023-02-27 17:24:53,Orleans St & Merchandise Mart Plaza,TA1305000022,Wells St & Elm St,KA1504000135,41.888243,-87.63639,41.903222,-87.634324,member
031C061192BAA99D,classic_bike,2023-02-01 17:42:23,2023-02-01 17:48:34,Michigan Ave & Washington St,13001,Canal St & Monroe St,13056,41.8839840647265,-87.6246839761734,41.88169,-87.63953,member
48F2DA117F7D56AB,electric_bike,2023-02-06 06:36:54,2023-02-06 06:42:06,Wells St & Huron St,TA1306000012,Clinton St & Washington Blvd,WL-012,41.894684196,-87.634392381,41.88338,-87.64117,member
21F40929461556AD,electric_bike,2023-02-14 18:49:59,2023-02-14 18:58:48,Damen Ave & Melrose Ave,13143,,,41.940515041,-87.678541541,41.93,-87.66,casual
A13BCA473B378D1D,classic_bike,2023-02-06 19:16:49,2023-02-06 19:33:43,Sedgwick St & North Ave,TA1307000038,Clark St & Drummond Pl,TA1307000142,41.911386,-87.638677,41.931248,-87.644336,member
8AF765C56FD8A1D9,classic_bike,2023-02-23 19:02:36,2023-02-23 19:18:37,Clark St & Wellington Ave,TA1307000136,Carpenter St & Huron St,13196,41.9364968219,-87.6475386582,41.894556,-87.653449,member
2C4FB55C79652182,classic_bike,2023-02-15 18:54:04,2023-02-15 19:18:58,Clark St & Leland Ave,TA1309000014,Ravenswood Ave & Lawrence Ave,TA1309000066,41.96708783918421,-87.66729086637497,41.96909,-87.674237,member
91B71A0A33AA421A,electric_bike,2023-02-19 17:00:40,2023-02-19 17:10:41,Troy St & North Ave,15653,Troy St & North Ave,15653,41.909845233,-87.705381751,41.90976930169,-87.7052804871,member
A9F49CE02F1E68D1,electric_bike,2023-02-18 06:23:38,2023-02-18 06:39:07,Racine Ave & 18th St,13164,,,41.858226895,-87.656504035,41.87,-87.67,casual
6AE4DA62340DF2FD,electric_bike,2023-02-02 17:56:50,2023-02-02 18:09:15,Clinton St & Washington Blvd,WL-012,,,41.8833665,-87.6412885,41.89,-87.64,casual
5259027E37178106,classic_bike,2023-02-07 18:50:19,2023-02-07 19:01:44,Broadway & Barry Ave,13137,Lincoln Ave & Roscoe St*,chargingstx5,41.93758231600629,-87.6440978050232,41.9433502470174,-87.67066776752472,member
6087AB830CAAEEAA,electric_bike,2023-02-21 16:29:52,2023-02-21 16:49:26,Columbus Dr & Randolph St,13263,Damen Ave & Cortland St,13133,41.884517908,-87.619510055,41.915983,-87.677335,member
9971516A78BCC796,classic_bike,2023-02-10 17:11:09,2023-02-10 17:15:36,Lakeview Ave & Fullerton Pkwy,TA1309000019,Lincoln Ave & Fullerton Ave,TA1309000058,41.925858,-87.638973,41.924161029067626,-87.64638036489487,member
F42004C1D4B301C9,electric_bike,2023-02-06 13:43:25,2023-02-06 13:46:22,Loomis St & Lexington St,13332,Morgan St & Polk St,TA1307000130,41.872234941,-87.661334991,41.871737,-87.65103,member
C2095BB029471E4C,classic_bike,2023-02-20 08:18:22,2023-02-20 08:22:22,Franklin St & Chicago Ave,13017,Orleans St & Hubbard St,636,41.896746973093805,-87.63566762208939,41.890028,-87.636618,member
5F9F6210F358994C,classic_bike,2023-02-09 14:01:09,2023-02-09 14:10:47,State St & Randolph St,TA1305000029,Federal St & Polk St,SL-008,41.88462107257936,-87.62783423066139,41.87207763285,-87.6295437729,member
A1405C48B050D73B,electric_bike,2023-02-06 08:14:56,2023-02-06 08:24:22,Sedgwick St & North Ave,TA1307000038,Milwaukee Ave & Grand Ave,13033,41.911312699,-87.638713598,41.891578,-87.648384,member
BF22DDD40F0E84AA,electric_bike,2023-02-26 12:47:20,2023-02-26 12:48:47,,,,,41.79,-87.6,41.79,-87.6,member
2EC7A595D47460C4,electric_bike,2023-02-16 17:59:12,2023-02-16 18:05:55,Canal St & Monroe St,13056,,,41.88143754,-87.639655232,41.88,-87.63,casual
09C02CAF062F0D6C,classic_bike,2023-02-02 09:23:24,2023-02-02 09:27:35,Ellis Ave & 60th St,KA1503000014,University Ave & 57th St,KA1503000071,41.78509714636,-87.6010727606,41.791478,-87.599861,member
C8F443ACB54D24C2,classic_bike,2023-02-23 12:42:10,2023-02-23 12:54:24,Leavitt St & Division St,658,Leavitt St & Division St,658,41.902997,-87.683825,41.902997,-87.683825,member
60D199BB55D0DA98,classic_bike,2023-02-20 21:10:31,2023-02-20 21:20:04,Wells St & Walton St,TA1306000011,Halsted St & Willow St,TA1307000166,41.89993001,-87.63443007,41.913865,-87.648755,member
7C8E244B21F7184E,classic_bike,2023-02-28 09:57:33,2023-02-28 10:16:15,Buckingham Fountain,15541,Streeter Dr & Grand Ave,13022,41.876423,-87.620339,41.892278,-87.612043,member
C7B71BF8AFF7CD2E,electric_bike,2023-02-05 15:15:09,2023-02-05 15:15:20,Sedgwick St & Huron St,TA1307000062,,,41.894690752,-87.638252974,41.89,-87.64,member
4186A159759F51EB,classic_bike,2023-02-26 18:19:30,2023-02-26 18:28:58,Ashland Ave & Division St,13061,Damen Ave & Grand Ave,TA1308000006,41.90345,-87.667747,41.89239445296271,-87.67688512802124,member
52E9E9F1A21F36FD,electric_bike,2023-02-07 08:11:28,2023-02-07 08:23:39,Michigan Ave & Lake St,TA1305000011,Clinton St & Washington Blvd,WL-012,41.886017323,-87.624520302,41.88338,-87.64117,casual
AE41EE9710245346,electric_bike,2023-02-18 16:23:02,2023-02-18 16:52:56,Elston Ave & Wabansia Ave,TA1309000032,Clybourn Ave & Division St,TA1307000115,41.912942,-87.66422566666667,41.904613,-87.640552,casual
426F30EB08F6B003,electric_bike,2023-02-02 16:02:14,2023-02-02 16:13:41,Elston Ave & Cortland St,TA1305000039,Clark St & Wellington Ave,TA1307000136,41.916430712,-87.666768193,41.9364968219,-87.6475386582,casual
779B4821E1833DA3,electric_bike,2023-02-27 17:23:44,2023-02-27 17:50:47,Millennium Park,13008,Halsted St & Dickens Ave,13192,41.881166666666665,-87.62410266666667,41.919936,-87.64883,member
B69D02EE30848568,electric_bike,2023-02-15 11:05:47,2023-02-15 11:08:40,Wabash Ave & Grand Ave,TA1307000117,Fairbanks Ct & Grand Ave,TA1305000003,41.891512394,-87.626681328,41.89184737210993,-87.62058019638062,member
FC0169BBAF3B4B7D,electric_bike,2023-02-10 19:52:50,2023-02-10 20:09:28,Kostner Ave & Adams St,545,,,41.87794733,-87.735998988,41.91,-87.75,member
FF7DACB3E6393949,classic_bike,2023-02-28 11:09:40,2023-02-28 11:14:20,Clark St & Winnemac Ave,TA1309000035,Clark St & Berwyn Ave,KA1504000146,41.97334764047304,-87.6678554713726,41.97803062248656,-87.66856491565704,member
ED43454C87DB934D,electric_bike,2023-02-25 17:12:15,2023-02-25 17:19:37,State St & 33rd St,13216,Rhodes Ave & 32nd St,13215,41.834731221,-87.625871181,41.836208,-87.613533,member
01DA6F9BE1296555,classic_bike,2023-02-03 11:44:42,2023-02-03 11:50:24,Orleans St & Chestnut St (NEXT Apts),620,Wells St & Evergreen Ave,TA1308000049,41.898203,-87.637536,41.906724,-87.63483,member
B39E326C9DAEC320,classic_bike,2023-02-26 10:33:42,2023-02-26 10:49:05,Halsted St & Dickens Ave,13192,Lincoln Ave & Fullerton Ave,TA1309000058,41.919936,-87.64883,41.924161029067626,-87.64638036489487,casual
0C467C9059F683DC,classic_bike,2023-02-01 19:44:49,2023-02-01 19:48:12,Broadway & Berwyn Ave,13109,Clark St & Berwyn Ave,KA1504000146,41.978353,-87.659753,41.97803062248656,-87.66856491565704,member
B78414AEE81DBDDF,electric_bike,2023-02-17 21:02:07,2023-02-17 21:10:44,,,,,42.02,-87.67,42.0,-87.68,member
FADA57F44B889611,electric_bike,2023-02-14 19:58:53,2023-02-14 20:03:56,Indiana Ave & 31st St,TA1308000036,Emerald Ave & 31st St,TA1309000055,41.83879292,-87.62185657,41.838198,-87.645143,member
A93478BDA9F827DC,classic_bike,2023-02-20 20:17:23,2023-02-20 20:30:27,Broadway & Wilson Ave,13074,Lakefront Trail & Bryn Mawr Ave,15576,41.965221,-87.658139,41.98404411519213,-87.65228122472763,member
548693231F0A37C4,classic_bike,2023-02-11 16:18:48,2023-02-11 16:30:12,Sheridan Rd & Montrose Ave,TA1307000107,Southport Ave & Roscoe St,13071,41.96167,-87.65464,41.943739,-87.66402,member
30F0198AFFE538B4,classic_bike,2023-02-27 17:48:39,2023-02-27 17:51:52,Ellis Ave & 60th St,KA1503000014,University Ave & 57th St,KA1503000071,41.78509714636,-87.6010727606,41.791478,-87.599861,member
FFAA6FC223450444,electric_bike,2023-02-14 19:28:23,2023-02-14 19:33:00,Ashland Ave & Chicago Ave,13247,Ogden Ave & Chicago Ave,TA1305000020,41.895972371,-87.667781591,41.896362458,-87.6540612729,member
727DD4942F0F0FE2,electric_bike,2023-02-18 21:32:42,2023-02-18 21:36:56,Desplaines St & Kinzie St,TA1306000003,,,41.888635278,-87.644461155,41.89,-87.66,member
16EE33755BD8AF0E,electric_bike,2023-02-15 11:12:55,2023-02-15 11:38:01,Broadway & Belmont Ave,13277,Wood St & Augusta Blvd,657,41.940079331,-87.64544785,41.899181,-87.6722,member
D051F1ACF06BFF55,electric_bike,2023-02-01 15:44:38,2023-02-01 15:55:19,,,,,41.9,-87.67,41.92,-87.66,member
5D4E93808D12A2DE,classic_bike,2023-02-26 15:44:29,2023-02-26 15:53:02,Kimbark Ave & 53rd St,TA1309000037,Ellis Ave & 60th St,KA1503000014,41.799568,-87.594747,41.78509714636,-87.6010727606,casual
3588E7E3CC9FF822,classic_bike,2023-02-14 09:12:58,2023-02-14 09:15:41,Broadway & Waveland Ave,13325,Halsted St & Roscoe St,TA1309000025,41.949074,-87.648636,41.94367,-87.64895,member
001E2F436CF5CFA4,electric_bike,2023-02-23 18:24:10,2023-02-23 18:27:30,Orleans St & Merchandise Mart Plaza,TA1305000022,Wells St & Huron St,TA1306000012,41.887967229,-87.636771679,41.894722,-87.634362,member
BE31CEA4970425AB,electric_bike,2023-02-08 14:24:43,2023-02-08 14:49:58,Avondale Ave & Irving Park Rd,15624,Avondale Ave & Irving Park Rd,15624,41.953472137,-87.73198807200001,41.953393,-87.732002,member
49E977A8422E2D44,classic_bike,2023-02-28 07:57:00,2023-02-28 08:00:33,Wells St & Polk St,SL-011,Franklin St & Monroe St,TA1309000007,41.87273154226308,-87.63351649045944,41.880317,-87.635185,member
8C8B7C7A44C490D1,classic_bike,2023-02-28 16:19:25,2023-02-28 19:31:51,Cityfront Plaza Dr & Pioneer Ct,13427,Clinton St & 18th St,TA1307000044,41.890573,-87.622072,41.85795,-87.640826,casual
FD5757383B52405B,classic_bike,2023-02-13 18:12:21,2023-02-13 18:26:42,Clinton St & Washington Blvd,WL-012,Ashland Ave & Chicago Ave,13247,41.88338,-87.64117,41.89595435734305,-87.6677280664444,member
B66C84E99622ACF4,electric_bike,2023-02-28 06:39:23,2023-02-28 06:49:00,,,Clinton St & Jackson Blvd,638,41.88,-87.62,41.87831661183069,-87.64098107814789,member
438BE7E1B5493AA9,classic_bike,2023-02-27 20:04:21,2023-02-27 20:10:57,Clark St & Wellington Ave,TA1307000136,Pine Grove Ave & Waveland Ave,TA1307000150,41.9364968219,-87.6475386582,41.94947274088333,-87.64645278453827,member
F2D1044217C9FDE2,electric_bike,2023-02-21 16:24:37,2023-02-21 16:32:39,Wells St & Polk St,SL-011,LaSalle St & Illinois St,13430,41.872761488,-87.633912683,41.890762,-87.631697,member
23782DD10E60D02C,classic_bike,2023-02-19 15:50:49,2023-02-19 16:12:48,Franklin St & Jackson Blvd,TA1305000025,Sangamon St & Lake St,TA1306000015,41.8777079559,-87.6353211408,41.88577925240433,-87.65102460980414,casual
6AAD7390A1425E88,electric_bike,2023-02-20 11:26:18,2023-02-20 11:28:39,Sheffield Ave & Wrightwood Ave,TA1309000023,,,41.928587,-87.65379383333334,41.93,-87.66,member
E6CE77C761171899,electric_bike,2023-02-18 21:30:11,2023-02-18 21:38:30,Western Ave & Fillmore St,644,Loomis St & Lexington St,13332,41.868694305,-87.686244965,41.87222873224032,-87.66136385500431,member
A893B6DE551C4B96,electric_bike,2023-02-28 16:30:06,2023-02-28 16:36:22,Damen Ave & Foster Ave,KA1504000149,Clark St & Berwyn Ave,KA1504000146,41.975664973,-87.67949152,41.97803062248656,-87.66856491565704,member
73A3CBD696D81F7B,classic_bike,2023-02-24 09:38:20,2023-02-24 09:54:38,Rockwell St & Eastwood Ave,KA1504000093,Western Ave & Roscoe St,15634,41.96590013976,-87.6936384935,41.943034,-87.687288,member
1B0F3445CBCD364B,classic_bike,2023-02-19 17:49:21,2023-02-19 19:13:27,State St & 33rd St,13216,State St & 33rd St,13216,41.834734,-87.625813,41.834734,-87.625813,casual
A010F0E5A7C7DEC9,classic_bike,2023-02-27 16:25:32,2023-02-27 16:31:59,State St & Randolph St,TA1305000029,Clinton St & Washington Blvd,WL-012,41.88462107257936,-87.62783423066139,41.88338,-87.64117,member
6AD72DF5D113CA75,classic_bike,2023-02-02 17:26:01,2023-02-02 17:29:29,Ellis Ave & 60th St,KA1503000014,University Ave & 57th St,KA1503000071,41.78509714636,-87.6010727606,41.791478,-87.599861,member
37F1642CF81AA56D,electric_bike,2023-02-06 15:44:37,2023-02-06 15:49:10,Lake Park Ave & 56th St,TA1309000063,University Ave & 57th St,KA1503000071,41.793262362,-87.587652206,41.791478,-87.599861,casual
62A17CD50AF5E5F6,electric_bike,2023-02-02 17:55:41,2023-02-02 18:00:41,Lincoln Ave & Fullerton Ave,TA1309000058,Clark St & Lincoln Ave,13179,41.924194574,-87.646201015,41.915689,-87.6346,member
655B50A7E8DBA12F,docked_bike,2023-02-18 16:35:52,2023-02-18 16:58:41,Kedzie Ave & Leland Ave,KA1504000126,Kedzie Ave & Milwaukee Ave,13085,41.966686,-87.708052,41.929567,-87.707857,casual
8575AA67BF6EA239,electric_bike,2023-02-08 11:01:45,2023-02-08 11:02:07,Franklin St & Chicago Ave,13017,,,41.896935821,-87.635649323,41.9,-87.64,member
A0CE3B9C96A31C0B,classic_bike,2023-02-23 23:18:23,2023-02-23 23:35:45,LaSalle Dr & Huron St,KP1705001026,Franklin St & Chicago Ave,13017,41.894877,-87.632326,41.896746973093805,-87.63566762208939,member
07D4062A960424C4,classic_bike,2023-02-28 09:28:47,2023-02-28 09:44:53,Ashland Ave & Blackhawk St,13224,Clark St & Chicago Ave,13303,41.907066,-87.667252,41.89675,-87.63089,member
F09F1E06469AE8B8,classic_bike,2023-02-08 18:44:21,2023-02-08 18:52:48,Clinton St & Madison St,TA1305000032,Michigan Ave & Lake St,TA1305000011,41.882751965685614,-87.64119029045105,41.886024,-87.624117,member
8350C62059E5DF2C,classic_bike,2023-02-02 18:56:53,2023-02-02 19:03:43,Wentworth Ave & 35th St,KA1503000005,Halsted St & 35th St,TA1308000043,41.830777,-87.632504,41.830661,-87.647172,member
1879EE1B17ED9195,classic_bike,2023-02-10 20:24:58,2023-02-10 20:33:20,Wells St & Huron St,TA1306000012,Clark St & Schiller St,TA1309000024,41.894722,-87.634362,41.907993,-87.631501,member
617E91FA12CCC109,classic_bike,2023-02-08 09:18:04,2023-02-08 09:28:38,Ellis Ave & 58th St,TA1309000011,Ellis Ave & 55th St,KA1504000076,41.788746,-87.601334,41.79430062054,-87.6014497734,member
2B93C9F7FD1540C3,electric_bike,2023-02-27 18:10:08,2023-02-27 18:15:51,,,,,41.88,-87.65,41.87,-87.67,member
67A1B80B641568FB,electric_bike,2023-02-14 20:11:12,2023-02-14 20:29:47,,,California Ave & Division St,13256,41.9,-87.63,41.903029,-87.697474,member
B023C8AB3F16C5D5,classic_bike,2023-02-04 18:26:27,2023-02-04 18:33:29,Broadway & Barry Ave,13137,Lincoln Ave & Diversey Pkwy,TA1307000064,41.93758231600629,-87.6440978050232,41.932225,-87.658617,member
D5BDDEEA4277C198,classic_bike,2023-02-23 12:12:17,2023-02-23 12:15:34,Woodlawn Ave & Lake Park Ave,KA1503000065,Lake Park Ave & 47th St,TA1308000035,41.81409271048,-87.5970051479,41.809443,-87.591875,member
02A548370F8E1CD9,electric_bike,2023-02-20 07:12:05,2023-02-20 07:23:07,Financial Pl & Ida B Wells Dr,SL-010,Hermitage Ave & Polk St,13080,41.875029087,-87.633113861,41.871514,-87.669886,member
9E7763A0B3010358,electric_bike,2023-02-12 03:04:56,2023-02-12 03:08:39,,,,,41.94,-87.65,41.94,-87.66,member
58A453745922420F,electric_bike,2023-02-28 15:12:39,2023-02-28 15:19:09,Kimbark Ave & 53rd St,TA1309000037,Ellis Ave & 58th St,TA1309000011,41.79948366666667,-87.59464083333333,41.788746,-87.601334,member
DB4966AFD308F905,electric_bike,2023-02-16 09:25:12,2023-02-16 09:33:26,LaSalle St & Jackson Blvd,TA1309000004,Orleans St & Hubbard St,636,41.877995372,-87.631892085,41.890028,-87.636618,member
0A64CFD96D8C80CD,classic_bike,2023-02-27 19:16:44,2023-02-27 19:40:17,Desplaines St & Randolph St,15535,Aberdeen St & Randolph St,18062,41.88461618962,-87.6445705849,41.884114,-87.654264,member
DABB71B99969E355,electric_bike,2023-02-22 21:31:17,2023-02-22 21:35:46,,,,,41.92,-87.64,41.91,-87.64,member
1D52CB307CEDDE42,electric_bike,2023-02-03 07:52:07,2023-02-03 08:02:33,Wells St & Concord Ln,TA1308000050,Franklin St & Lake St,TA1307000111,41.912009001,-87.634870529,41.885837,-87.6355,member
46CF963919DFB638,classic_bike,2023-02-21 17:01:48,2023-02-21 17:03:52,Clark St & Wrightwood Ave,TA1305000014,Lakeview Ave & Fullerton Pkwy,TA1309000019,41.929546,-87.643118,41.925858,-87.638973,member
C1EBCE15B0F7603E,electric_bike,2023-02-07 09:24:48,2023-02-07 09:30:00,Broadway & Ridge Ave,15578,,,41.984062672,-87.660301328,41.98,-87.66,member
277EB842824DC08E,electric_bike,2023-02-06 09:39:26,2023-02-06 09:41:49,,,,,41.79,-87.6,41.79,-87.6,member
18177F1B51DA1602,classic_bike,2023-02-12 22:16:44,2023-02-12 22:21:04,Sheffield Ave & Wellington Ave,TA1307000052,Sheffield Ave & Fullerton Ave,TA1306000016,41.9362534831413,-87.65266209840775,41.9256018819,-87.6537080423,member
FABF86311EA4271F,classic_bike,2023-02-13 16:39:44,2023-02-13 16:44:02,Orleans St & Chestnut St (NEXT Apts),620,Wells St & Elm St,KA1504000135,41.898203,-87.637536,41.903222,-87.634324,member
59BE1CD61504A275,classic_bike,2023-02-25 18:43:34,2023-02-25 19:08:09,Racine Ave & Belmont Ave,TA1308000019,Damen Ave & Pierce Ave,TA1305000041,41.939743,-87.658865,41.9093960065,-87.6776919292,casual
20F2DCD6CB790F79,classic_bike,2023-02-19 10:50:58,2023-02-19 11:07:13,Noble St & Milwaukee Ave,13290,Mies van der Rohe Way & Chicago Ave,13338,41.90068,-87.6626,41.896944626370825,-87.62175768613815,member
9B42930819618391,classic_bike,2023-02-25 18:01:55,2023-02-25 18:12:48,State St & Kinzie St,13050,Columbus Dr & Randolph St,13263,41.88937546663168,-87.62707650661469,41.884728,-87.619521,member
A9395DF84021B1AA,classic_bike,2023-02-18 13:54:04,2023-02-18 13:58:25,Broadway & Cornelia Ave,13278,Pine Grove Ave & Waveland Ave,TA1307000150,41.945529,-87.646439,41.94947274088333,-87.64645278453827,casual
ADF59E5928922313,electric_bike,2023-02-24 06:02:43,2023-02-24 06:08:30,,,Dearborn St & Erie St,13045,41.89,-87.64,41.893992,-87.629318,member
9DF0F5E5A89ACFAF,classic_bike,2023-02-28 07:13:39,2023-02-28 07:18:09,Clinton St & Jackson Blvd,638,Clinton St & Madison St,TA1305000032,41.87831661183069,-87.64098107814789,41.882751965685614,-87.64119029045105,member
6E4B9297926ADEF5,electric_bike,2023-02-12 16:27:29,2023-02-12 16:37:46,,,Stockton Dr & Wrightwood Ave,13276,41.94,-87.65,41.93132,-87.638742,casual
F60FAAB107BA3AF6,classic_bike,2023-02-16 08:58:21,2023-02-16 09:04:43,Wacker Dr & Washington St,KA1503000072,Michigan Ave & Washington St,13001,41.88314336439022,-87.63724207878113,41.8839840647265,-87.6246839761734,member
AA9B6132429DD0F6,classic_bike,2023-02-28 17:27:23,2023-02-28 17:30:40,Franklin St & Illinois St,RN-,Dearborn St & Erie St,13045,41.89102331025185,-87.63547986745834,41.893992,-87.629318,member
6A7895B83AB83EB5,classic_bike,2023-02-19 19:14:55,2023-02-19 19:31:27,Lakefront Trail & Bryn Mawr Ave,15576,Clark St & Elmdale Ave,KA1504000148,41.98404411519213,-87.65228122472763,41.99086044812557,-87.66972362995148,member
6F8DB7944840C9C6,classic_bike,2023-02-27 15:17:15,2023-02-27 15:26:41,Broadway & Cornelia Ave,13278,Clark St & Wrightwood Ave,TA1305000014,41.945529,-87.646439,41.929546,-87.643118,member
062D02D33FC8BFA1,electric_bike,2023-02-15 15:16:09,2023-02-15 15:23:24,St. Clair St & Erie St,13016,Larrabee St & Kingsbury St,TA1306000009,41.894557714,-87.623155951,41.897764,-87.642884,member
478464A560662622,classic_bike,2023-02-12 11:51:17,2023-02-12 12:08:20,Racine Ave & Belmont Ave,TA1308000019,Halsted St & Dickens Ave,13192,41.939743,-87.658865,41.919936,-87.64883,casual
1026959997964FA2,electric_bike,2023-02-06 18:39:25,2023-02-06 18:55:44,,,Central Park Ave & Elbridge Ave,15644,41.92,-87.67,41.93533728263,-87.7168892935,casual
1FA220C8931B7887,electric_bike,2023-02-15 12:36:24,2023-02-15 12:51:36,Morgan St & Polk St,TA1307000130,,,41.872012496,-87.651016235,41.86,-87.65,casual
20B54E517D4458F9,electric_bike,2023-02-12 12:14:55,2023-02-12 12:21:45,Green St & Randolph St*,chargingstx3,May St & Taylor St,13160,41.883693576,-87.648706317,41.8694821,-87.6554864,member
4BA93F8823971FC8,classic_bike,2023-02-20 08:31:53,2023-02-20 08:35:34,Kingsbury St & Erie St,13265,Kingsbury St & Kinzie St,KA1503000043,41.89380805624359,-87.64169722795485,41.88917683258,-87.6385057718,member
005C53CAC39ABCA3,classic_bike,2023-02-05 12:56:32,2023-02-05 13:19:29,Michigan Ave & 8th St,623,Shedd Aquarium,15544,41.872773,-87.623981,41.86722595682,-87.6153553902,casual
D7303CD99AE87643,electric_bike,2023-02-27 20:43:27,2023-02-27 20:47:10,,,,,42.05,-87.68,42.06,-87.67,member
F5693D671F367C01,classic_bike,2023-02-20 08:42:16,2023-02-20 08:46:32,Damen Ave & Charleston St,13288,Damen Ave & Pierce Ave,TA1305000041,41.920082,-87.677855,41.9093960065,-87.6776919292,casual
D5C4670D999C6E03,classic_bike,2023-02-10 17:01:02,2023-02-10 17:11:41,Clinton St & Roosevelt Rd,WL-008,State St & 19th St,SL-013,41.8671177825,-87.6410879593,41.856594,-87.627542,member
FC2174B157DBD084,electric_bike,2023-02-13 17:41:56,2023-02-13 17:47:45,Wells St & Polk St,SL-011,Clinton St & Washington Blvd,WL-012,41.872792125,-87.633788228,41.88338,-87.64117,casual
B1CCA2418C647E01,electric_bike,2023-02-20 12:52:27,2023-02-20 13:01:46,Larrabee St & Kingsbury St,TA1306000009,Fairbanks St & Superior St,18003,41.89754216666667,-87.643361,41.895748,-87.620104,member
E52529ECA5B8C3C5,classic_bike,2023-02-13 08:17:09,2023-02-13 08:24:27,Kingsbury St & Kinzie St,KA1503000043,Canal St & Adams St,13011,41.88917683258,-87.6385057718,41.879255,-87.639904,member
6F489078ED2D5262,classic_bike,2023-02-21 18:31:48,2023-02-21 18:37:19,Peoria St & Jackson Blvd,13158,Clinton St & Washington Blvd,WL-012,41.8776415962753,-87.64961779117584,41.88338,-87.64117,member
BD14B274EC0D45A7,classic_bike,2023-02-19 12:34:58,2023-02-19 13:56:58,Halsted St & Clybourn Ave,331,Michigan Ave & Pearson St,13034,41.909668,-87.648128,41.89766,-87.62351,casual
C16E9258BE8BC430,electric_bike,2023-02-08 19:05:39,2023-02-08 19:09:34,Wells St & Concord Ln,TA1308000050,Clark St & Elm St,TA1307000039,41.911997199,-87.634741902,41.902973,-87.63128,casual
B654E19158BEF5C0,electric_bike,2023-02-10 09:05:22,2023-02-10 09:34:10,Damen Ave & Sunnyside Ave,TA1309000012,,,41.96330583333334,-87.6793435,41.94,-87.67,member
337CB12F28F45E8D,electric_bike,2023-02-17 14:51:49,2023-02-17 14:58:23,Larrabee St & Webster Ave,13193,,,41.92183116666666,-87.64398833333334,41.93,-87.64,member
780E1117F87DB8AD,electric_bike,2023-02-14 08:09:48,2023-02-14 08:13:06,,,Sheffield Ave & Fullerton Ave,TA1306000016,41.93,-87.67,41.9256018819,-87.6537080423,member
438F8C2501BC5771,electric_bike,2023-02-09 17:40:26,2023-02-09 17:45:36,Sheffield Ave & Wellington Ave,TA1307000052,Sheffield Ave & Fullerton Ave,TA1306000016,41.93650353,-87.652661085,41.9256018819,-87.6537080423,casual
08DBC458483BA2B8,electric_bike,2023-02-27 10:24:54,2023-02-27 10:28:26,New St & Illinois St,TA1306000013,State St & Kinzie St,13050,41.890865803,-87.61875844,41.88937546663168,-87.62707650661469,member
91E7F157E3E26B83,electric_bike,2023-02-04 13:07:03,2023-02-04 13:10:46,Rush St & Superior St,15530,McClurg Ct & Ohio St,TA1306000029,41.89589983333333,-87.62635916666666,41.892592119709725,-87.61728912591934,member
3D8CF6AC60012108,electric_bike,2023-02-22 15:40:58,2023-02-22 15:44:08,,,,,41.87,-87.66,41.87,-87.65,member
3E23D7BF6B43E313,classic_bike,2023-02-08 18:56:13,2023-02-08 19:00:10,Dearborn St & Erie St,13045,Kingsbury St & Erie St,13265,41.893992,-87.629318,41.89380805624359,-87.64169722795485,member
E432ED2C36D4A1F7,electric_bike,2023-02-28 08:53:43,2023-02-28 08:57:27,,,Michigan Ave & Madison St,13036,41.88,-87.63,41.882134,-87.625125,member
3FBBA8BB557C5E7E,classic_bike,2023-02-06 11:48:17,2023-02-06 11:56:54,Glenwood Ave & Morse Ave,KA1504000175,Broadway & Granville Ave,15571,42.00797192287,-87.6655023944,41.9947796884,-87.6602845349,member
78A5E58DC6D2A771,electric_bike,2023-02-11 18:45:45,2023-02-11 19:03:12,Claremont Ave & Hirsch St,13245,Southport Ave & Waveland Ave,13235,41.907746553,-87.685955286,41.94815,-87.66394,member
B4145991EC0C4413,classic_bike,2023-02-04 16:14:42,2023-02-04 16:18:31,California Ave & Montrose Ave,15622,Campbell Ave & Montrose Ave,15623,41.961068,-87.695439,41.961524,-87.691177,member
31420C85AD07BF0F,classic_bike,2023-02-15 18:55:14,2023-02-15 19:16:03,Wood St & Hubbard St,13432,Western Ave & Winnebago Ave,13068,41.889899,-87.671473,41.91552,-87.687022,member
3A7734D2EF79B7B9,classic_bike,2023-02-18 13:59:48,2023-02-18 19:16:14,Wentworth Ave & 33rd St,15445,Calumet Ave & 33rd St,13217,41.83452988563,-87.6318229814,41.8349,-87.61793,member
79B95BB504F2B21C,electric_bike,2023-02-08 21:31:35,2023-02-08 21:31:51,,,,,41.93,-87.75,41.93,-87.75,member
496120D3D6FA6A0C,electric_bike,2023-02-27 06:02:24,2023-02-27 06:08:35,Kingsbury St & Kinzie St,KA1503000043,Dearborn St & Erie St,13045,41.88922166666666,-87.63840766666667,41.893992,-87.629318,member
82A8A7588B85E53A,electric_bike,2023-02-12 13:50:50,2023-02-12 13:57:13,Larrabee St & Webster Ave,13193,Stockton Dr & Wrightwood Ave,13276,41.921824455,-87.644046903,41.93132,-87.638742,member
5FCE80424BEE125E,electric_bike,2023-02-24 08:58:09,2023-02-24 09:01:16,Loomis St & Lexington St,13332,Morgan St & Polk St,TA1307000130,41.8722075,-87.66127716666666,41.871737,-87.65103,member
16F141A2759508FC,electric_bike,2023-02-26 13:00:11,2023-02-26 13:46:31,,,Rush St & Superior St,15530,41.9,-87.61,41.89576474564,-87.6259080327,casual
A0B16B94C8ECC40E,classic_bike,2023-02-05 11:39:15,2023-02-05 11:58:07,Fort Dearborn Dr & 31st St,TA1307000048,Wallace St & 35th St,TA1308000045,41.838556,-87.608218,41.83070705144085,-87.64125533401966,member
7AA9869F1E5DE660,electric_bike,2023-02-23 17:01:51,2023-02-23 17:06:07,Clark St & Lake St,KA1503000012,Canal St & Madison St,13341,41.885796,-87.63113566666667,41.882409,-87.639767,member
CC8BCC357A64FB77,classic_bike,2023-02-03 08:23:13,2023-02-03 08:29:10,Broadway & Barry Ave,13137,Sheffield Ave & Wellington Ave,TA1307000052,41.93758231600629,-87.6440978050232,41.9362534831413,-87.65266209840775,member
504E706FAB70D8A6,classic_bike,2023-02-16 18:45:32,2023-02-16 19:27:52,Franklin St & Lake St,TA1307000111,Ashland Ave & Division St,13061,41.885837,-87.6355,41.90345,-87.667747,member
EC683CDDC15A28E7,electric_bike,2023-02-15 08:18:00,2023-02-15 08:22:13,N Green St & W Lake St,20246.0,Wacker Dr & Washington St,KA1503000072,41.89,-87.65,41.88314336439022,-87.63724207878113,member
C600E90F45E2908C,electric_bike,2023-02-08 18:35:30,2023-02-08 18:47:29,Canal St & Taylor St,15550,Orleans St & Merchandise Mart Plaza,TA1305000022,41.8701035,-87.63944933333333,41.888243,-87.63639,casual
38FBF2C4C6CBD655,electric_bike,2023-02-06 07:15:25,2023-02-06 07:21:12,Clinton St & Madison St,TA1305000032,Elizabeth St & Fulton St,13197,41.882780433,-87.641376257,41.88671077318443,-87.65965729951859,casual
18684FDE7FE55EAF,electric_bike,2023-02-07 21:17:39,2023-02-07 21:24:36,Southport Ave & Wrightwood Ave,TA1307000113,Clark St & Wellington Ave,TA1307000136,41.928809166,-87.663854599,41.9364968219,-87.6475386582,casual
EFA3F2C54CB3D477,electric_bike,2023-02-20 09:54:27,2023-02-20 09:59:33,,,State St & 35th St,TA1307000129,41.84,-87.64,41.8310363140161,-87.62679755687714,casual
A7A7AE51D2C6FF24,classic_bike,2023-02-03 22:23:48,2023-02-03 22:28:57,LaSalle St & Jackson Blvd,TA1309000004,Michigan Ave & Washington St,13001,41.878166,-87.631929,41.8839840647265,-87.6246839761734,member
2C0BFAE11EFAB9CF,classic_bike,2023-02-05 13:12:03,2023-02-05 13:20:58,LaSalle St & Illinois St,13430,Wells St & Elm St,KA1504000135,41.890762,-87.631697,41.903222,-87.634324,member
7D1814297B0FFC56,electric_bike,2023-02-25 17:05:03,2023-02-25 17:29:52,Ashland Ave & Grand Ave,13434,Bernard St & Elston Ave,18016,41.89109216666667,-87.66667783333334,41.949923,-87.713949,member
923E1689BC36A151,electric_bike,2023-02-18 09:55:39,2023-02-18 10:05:23,Halsted St & Clybourn Ave,331,DuSable Lake Shore Dr & Diversey Pkwy,TA1309000039,41.909657121,-87.648178577,41.932588,-87.636427,member
A6DE39A4BC1B9800,classic_bike,2023-02-12 13:18:32,2023-02-12 13:29:03,Ellis Ave & 55th St,KA1504000076,University Ave & 57th St,KA1503000071,41.79430062054,-87.6014497734,41.791478,-87.599861,member
6BF8F96E663E62C2,classic_bike,2023-02-07 06:50:10,2023-02-07 06:54:07,Lincoln Ave & Fullerton Ave,TA1309000058,Racine Ave & Fullerton Ave,TA1306000026,41.924161029067626,-87.64638036489487,41.925566,-87.658416,member
05E39AEB5F999BC3,electric_bike,2023-02-02 06:17:47,2023-02-02 06:23:03,,,,,41.94,-87.65,41.93,-87.65,member
701E42040F739B5E,electric_bike,2023-02-08 13:18:51,2023-02-08 13:24:49,Wells St & Hubbard St,TA1307000151,Wells St & Elm St,KA1504000135,41.889920115,-87.634183645,41.903222,-87.634324,member
0079B69AE59C68A5,electric_bike,2023-02-07 12:19:48,2023-02-07 12:25:21,LaSalle St & Jackson Blvd,TA1309000004,,,41.877964973,-87.631728649,41.88,-87.63,member
2EFDBE1D4BF4A45B,classic_bike,2023-02-14 16:20:04,2023-02-14 16:31:07,Morgan St & Lake St*,chargingstx4,Ogden Ave & Congress Pkwy,13081,41.88549170626906,-87.65228927135468,41.87501,-87.67328,member
FEB8DFC9D9769FF1,electric_bike,2023-02-13 17:27:27,2023-02-13 17:42:19,Halsted St & Polk St,TA1307000121,May St & Cullerton St,13331,41.871777177,-87.646631002,41.855136,-87.654127,member
E0BFD2A24AB72AFB,electric_bike,2023-02-16 17:55:16,2023-02-16 18:00:05,Clinton St & Jackson Blvd,638,Peoria St & Jackson Blvd,13158,41.878544688,-87.640970826,41.8776415962753,-87.64961779117584,member
F85237C7E4D595A0,docked_bike,2023-02-26 11:16:02,2023-02-26 18:39:30,St. Clair St & Erie St,13016,St. Clair St & Erie St,13016,41.894345,-87.622798,41.894345,-87.622798,casual
3A23664BDB989F79,classic_bike,2023-02-15 15:20:24,2023-02-15 15:24:00,State St & 33rd St,13216,State St & 29th St,13213,41.834734,-87.625813,41.841707,-87.626938,member
1F987450AFCCEAC8,electric_bike,2023-02-03 15:45:41,2023-02-03 15:49:23,Clark St & Elm St,TA1307000039,Wells St & Walton St,TA1306000011,41.902799964,-87.63174355,41.89993001,-87.63443007,member
926D28F1A39C3AFB,electric_bike,2023-02-22 20:33:19,2023-02-22 20:38:53,Clark St & Wrightwood Ave,TA1305000014,Clark St & Wellington Ave,TA1307000136,41.929549694,-87.643176317,41.9364968219,-87.6475386582,casual
C45F77C0C913FB1E,classic_bike,2023-02-06 20:41:01,2023-02-06 20:45:06,DuSable Lake Shore Dr & Wellington Ave,TA1307000041,DuSable Lake Shore Dr & Belmont Ave,TA1309000049,41.9366884494997,-87.63682901859283,41.940775,-87.639192,member
35372BE3AA7D3FE7,classic_bike,2023-02-28 17:50:36,2023-02-28 17:54:45,Canal St & Harrison St,13326,Halsted St & Polk St,TA1307000121,41.874255,-87.639573,41.87184,-87.64664,member
049B41BD5CE392B3,electric_bike,2023-02-02 12:01:05,2023-02-02 12:01:16,,,,,41.88,-87.63,41.88,-87.63,member
B2630CEB06AEA3F1,electric_bike,2023-02-17 10:49:33,2023-02-17 10:53:56,University Ave & 57th St,KA1503000071,Ellis Ave & 60th St,KA1503000014,41.791475892,-87.599938393,41.78509714636,-87.6010727606,member
C8B73F6A431CE76C,electric_bike,2023-02-15 12:05:24,2023-02-15 12:13:26,,,,,41.91,-87.65,41.92,-87.68,member
321AB5F8C0F736AA,classic_bike,2023-02-06 17:22:03,2023-02-06 17:50:34,Michigan Ave & Madison St,13036,California Ave & Milwaukee Ave,13084,41.882134,-87.625125,41.922695,-87.697153,member
